,County,Latitude,Longitude,Plant Code,Zipcode
0,Macon,39.849190,-88.931944,10867.0,62525
1,Tippecanoe,40.443900,-86.860000,50903.0,47904
2,Mississippi,,,55454.0,72426
3,Le Flore,35.1931,-94.6458,10671.0,74951
4,Kern,,,54750.0,92886
5,Worcester,42.0736,-72.0219,54373.0,1550
6,Jefferson,40.313600,-80.605800,55611.0,43938
7,Yates,42.678900,-76.948300,2527.0,14441
8,Abbeville,,,3305.0,29620
9,Allegany,39.595171,-78.745333,10678.0,21502
10,Steuben,,,2529.0,14830
11,Erie,,,55788.0,14225
12,New London,,,10675.0,6382
13,Beaver,,,55631.0,16157
14,San Bernadino,,,10002.0,93562
15,Navajo,,,50805.0,85937
16,St Joseph,,,55636.0,46552
17,Angelina,,,50249.0,75902
18,Kent,42.962672,-85.494071,10819.0,49355
19,Accomack,,,6390.0,23310
20,Somerset,37.993300,-76.035300,6391.0,21824
21,Rockingham,42.9042,-71.4261,55170.0,3053
22,Wright,42.665941,-93.902606,10223.0,50533
23,West Baton Rouge,,,55459.0,70710
24,Lenawee,41.899200,-84.041100,54903.0,49221
25,Calcasieu,30.201200,-93.126900,10593.0,70615
26,Beaver,40.657218,-80.353929,10676.0,15061
27,Nobles,43.637110,-95.932794,1956.0,56110
28,Saratoga,42.787575,-73.691676,10467.0,12188
29,Harris,29.716552,-95.227356,10670.0,77506
30,Kern,,,52093.0,93224
31,Kern,35.438611,-119.707500,50752.0,93251
32,Kern,35.666111,-119.766944,52077.0,93251
33,Hartford,,,10567.0,6096
34,Aitkin,,,1957.0,56431
35,Oahu,,,10673.0,96707
36,Los Angeles,34.380100,-118.499900,10677.0,91321
37,Kenai Peninsula Boro,,,54452.0,99611
38,Covington,,,53.0,36420
39,Covington,,,55.0,36420
40,Washington,31.488019,-87.910747,56.0,36548
41,Covington,,,533.0,36420
42,Walton,,,6192.0,32439
43,Washington,31.254600,-88.029900,7063.0,36553
44,Bernalillo,35.500000,-106.666700,10339.0,87105
45,Tuscaloosa,,,2.0,23456
46,Mobile,31.006900,-88.010300,3.0,36512
47,Elmore,32.583889,-86.283056,4.0,36092
48,Etowah,34.012800,-85.970800,7.0,35903
49,Walker,33.644344,-87.196486,8.0,35580
50,Greene,32.601700,-87.781100,10.0,36732
51,Calhoun,33.784500,-86.052400,11.0,36271
52,Tuscaloosa,33.255300,-87.449500,12.0,35476
53,Elmore,32.618900,-86.254800,13.0,36092
54,Talladega,33.425878,-86.337547,14.0,35178
55,Chilton,32.963300,-86.518700,15.0,35045
56,Elmore,32.680394,-85.911442,16.0,36078
57,Coosa,32.806025,-86.444892,17.0,36091
58,Walker,33.940600,-87.107700,18.0,35501
59,Elmore,32.535436,-85.887614,19.0,36078
60,Cherokee,34.172142,-85.753806,20.0,35983
61,Elmore,32.574300,-85.890100,21.0,36078
62,Shelby,33.244211,-86.458056,26.0,35186
63,Houston,,,6001.0,36312
64,Jefferson,33.631900,-87.059700,6002.0,35073
65,Randolph,33.258281,-85.616047,6188.0,36266
66,Washington,31.250400,-88.015600,7697.0,36553
67,Lowndes,32.310226,-86.525420,7698.0,36752
68,nan,,,7708.0,0
69,Mobile,30.525445,-88.128477,7721.0,36582
70,Lee,,,7840.0,36874
71,nan,,,7876.0,nan
72,nan,,,7877.0,nan
73,Autauga,,,7897.0,36003
74,Monroe,31.582500,-87.488900,54429.0,36470
75,Juneau,58.317600,-134.101000,62.0,99801
76,Juneau,58.310700,-134.417400,63.0,99801
77,Juneau,58.353600,-134.495300,64.0,99801
78,Juneau,58.326900,-134.463100,65.0,99801
79,Juneau,58.141500,-133.737000,78.0,99801
80,Juneau,58.387500,-134.644600,7250.0,99801
81,Skagway-Yakutat,59.454500,-135.313100,66.0,99840
82,Haines,,,69.0,99827
83,Southeast Fairbanks,63.336700,-142.985600,406.0,99780
84,Prince of Wales,55.476400,-133.148300,421.0,99921
85,Southeast Fairbanks,62.961700,-141.937200,7169.0,99764
86,Fairbanks North Star,,,7506.0,99737
87,Skagway,,,7751.0,99840
88,Prince of Wales,55.563200,-135.891700,7752.0,99921
89,Bethel,61.479444,-165.499444,6311.0,99563
90,Bethel,62.871900,-164.486400,6314.0,99581
91,Bethel,61.520800,-166.100300,6319.0,99604
92,Kobuk,67.568300,-160.505300,6323.0,99749
93,Bethel,62.165600,-163.078300,6329.0,99632
94,Kobuk,66.855300,-160.495800,6330.0,99763
95,Bethel,60.875278,-162.453333,6333.0,99641
96,Bethel,62.063600,-163.265800,6338.0,99658
97,Nome,,,6339.0,99659
98,Kobuk,66.556900,-160.143100,6341.0,99770
99,Nome,65.085300,-165.110800,6345.0,99772
100,Dillingham,59.228100,-160.385000,6348.0,99678
101,Summit,41.073336,-81.530642,54265.0,44307
102,Gentry,40.245000,-94.339000,2113.0,64402
103,Milam,30.568100,-97.061400,52071.0,76567
104,Walla Walla,,,55676.0,99363
105,Armstrong,40.896596,-79.478982,50897.0,16210
106,Armstrong,40.955961,-79.550681,50898.0,16218
107,Armstrong,40.682875,-79.665298,50893.0,15682
108,Kenai Peninsula,,,7367.0,0
109,Douglas,45.889167,-95.379722,1958.0,56308
110,Rapides,31.320700,-92.461300,6558.0,71301
111,Graham,35.447500,-83.863900,54898.0,28771
112,Graham,,,54899.0,28780
113,Blount,35.492300,-83.980600,54900.0,37801
114,Blount,35.545300,-84.050300,54901.0,37801
115,Kossuth,43.073300,-94.239200,1120.0,50511
116,Belknap,43.473238,-71.533623,54572.0,3220
117,Hood,32.334220,-97.731686,55139.0,76048
118,Stanly,35.418900,-80.091700,54894.0,28009
119,Stanly,35.394400,-80.075300,54895.0,28009
120,Davidson,,,54896.0,27239
121,Montgomery,35.485600,-80.175800,54897.0,28127
122,Clinton,44.519153,-73.464752,54391.0,12944
123,Harris,29.622500,-95.045800,10298.0,77507
124,Juniata,,,7128.0,16652
125,Jefferson,29.978760,-93.952294,54748.0,77651
126,Monroe,31.582500,-87.488900,10216.0,36470
127,San Joaquin,37.911900,-121.261100,10640.0,95206
128,Weakley,36.245400,-88.612000,55251.0,38229
129,Malheur,,,54612.0,97913
130,Dubuque,,,54710.0,52004
131,Allamakee,43.090600,-91.554200,54712.0,52162
132,Story,42.025000,-93.441666,54713.0,50201
133,Linn,42.030800,-91.706900,54714.0,52499
134,Marshall,42.056000,-92.897100,54715.0,50158
135,Linn,,,54716.0,52302
136,Linn,42.035600,-91.645800,54717.0,52498
137,Winneshiek,,,54718.0,52136
138,Linn,41.935000,-91.636100,54719.0,52404
139,Iowa,41.795800,-92.059200,54720.0,52301
140,Dubuque,42.530000,-90.684700,54735.0,52001
141,Linn,,,54929.0,52404
142,Linn,,,54930.0,52627
143,Linn,42.026400,-91.704200,54967.0,52499
144,Wright,42.838150,-93.603250,54968.0,50421
145,Linn,42.041667,-91.675000,55315.0,52233
146,Winnebago,,,55316.0,61104
147,Knox,38.671600,-87.293100,55224.0,47597
148,Armstrong,40.716389,-79.577222,50894.0,16226
149,Howard,32.273182,-101.422436,10569.0,79720
150,Alameda,,,10581.0,94550
151,Cook,,,10406.0,60658
152,Buena Vista,42.673300,-95.303900,1121.0,51002
153,Effingham,39.000000,-88.750000,7990.0,62411
154,Yoakum,33.009944,-102.756945,52122.0,79323
155,Aleutian Islands,,,54222.0,99685
156,Twin Falls,42.532800,-114.432800,10504.0,83301
157,Orange,41.408300,-74.373100,10549.0,10924
158,Niagara,43.083900,-79.005600,50472.0,14304
159,Tehama,,,50964.0,96063
160,Nassau,40.738900,-73.590600,10642.0,11590
161,Susquehanna,41.944653,-75.617823,10433.0,18847
162,Traill,47.437562,-97.063110,54210.0,58045
163,Clay,46.902600,-96.761120,54211.0,56560
164,Polk,47.764680,-96.633375,54212.0,56716
165,Pembina,48.593158,-97.176080,54213.0,58225
166,Polk,47.927202,-97.007153,54214.0,56721
167,Uinta,,,52129.0,82930
168,San Juan,,,55458.0,87413
169,Huntingdon,40.540042,-78.034628,10152.0,16669
170,Lebanon,40.350900,-76.365800,55337.0,17042
171,Montgomery,39.058600,-89.403100,861.0,62017
172,Jackson,37.657700,-89.511161,862.0,62942
173,Crawford,39.133300,-87.659700,863.0,62433
174,Morgan,39.823330,-90.567220,864.0,62665
175,Jasper,38.936100,-88.278100,6017.0,62448
176,Ford,,,55201.0,88001
177,Perry,38.111400,-89.346700,55202.0,62274
178,Marion,,,55204.0,60123
179,Kane,,,55438.0,60123
180,Boone,,,55447.0,65203
181,New London,41.475,-72.0688,10646.0,6365
182,Essex,40.7376,-74.1255,10643.0,7105
183,St Bernard,29.946800,-90.001800,54512.0,70032
184,Story,42.025800,-93.608900,1122.0,50010
185,Story,42.027200,-93.582800,6463.0,50010
186,Marion,39.561831,-80.163138,10151.0,26574
187,Delaware,39.826500,-75.388200,10746.0,19013
188,Essex,44.4122,-71.7228,10608.0,5904
189,Orange,,,7693.0,92805
190,Anchorage,61.222100,-149.866100,75.0,99501
191,Matanuska-Susitna,61.475211,-149.150090,77.0,99645
192,Anchorage,61.229713,-149.716744,6559.0,99504
193,Coos,44.3889,-71.1645,54639.0,3570
194,St Louis City,38.597755,-90.210671,10430.0,63118
195,Duval,,,10431.0,32229
196,Essex,,,54913.0,7101
197,Norfolk,42.110577,-71.453468,55211.0,2019
198,Worcester,42.059876,-71.515811,55212.0,1504
199,Harris,,,50253.0,77044
200,Cass,41.444400,-94.768900,1123.0,50020
201,Custer,41.352800,-99.497800,2214.0,68814
202,Harper,37.151700,-98.031100,1258.0,67003
203,Carroll,,,3772.0,24400
204,Carroll,,,3773.0,24400
205,Pulaski,,,3774.0,24300
206,Russell,,,3775.0,24200
207,Giles,,,3776.0,24100
208,Campbell,,,3777.0,24600
209,Roanoke,,,3778.0,24000
210,Campbell,,,3779.0,24500
211,Franklin,,,3780.0,24200
212,Putnam,,,3935.0,25200
213,Kanawha,,,3936.0,25100
214,Mason,,,6264.0,25300
215,Kanawha,,,6560.0,25100
216,Kanawha,,,6561.0,25300
217,Kanawha,,,6562.0,25200
218,Ellis,32.430200,-97.053700,55091.0,76065
219,Outagamie,44.271700,-88.301100,55558.0,54113
220,San Diego,32.735300,-117.208300,10810.0,92140
221,San Diego,32.679269,-117.122447,10811.0,92136
222,San Diego,,,10812.0,92139
223,Muskingum,,,55877.0,43830
224,Appomattox,,,10155.0,23803
225,Clay,38.699600,-88.539200,55417.0,62839
226,Cass,,,55826.0,64080
227,Trempealeau,44.252400,-91.503400,4100.0,54612
228,Darke,39.986100,-84.550300,2902.0,45304
229,Wilson,37.500000,-95.800000,10857.0,66736
230,Lowndes,30.800000,-83.200000,10859.0,31601
231,Clinton,,,10860.0,61727
232,Polk,41.624438,-93.584515,10861.0,50316
233,Lancaster,40.866463,-96.614486,10862.0,68507
234,Blue Earth,44.187066,-93.992420,10863.0,56001
235,Linn,41.922100,-91.687500,10864.0,52406
236,Macon,39.870074,-88.890756,10865.0,62521
237,Peoria,40.677188,-89.604911,10866.0,61602
238,Will,,,54309.0,60475
239,Knox,40.900000,-90.333300,54310.0,61401
240,Pulaski,34.700000,-92.199722,54311.0,72203
241,Christian,39.599722,-89.300000,54312.0,62568
242,Brunswick,33.939700,-77.990500,54316.0,28461
243,Plymouth,42,-71.2,55046.0,2048
244,Pembina,48.908944,-97.886521,55638.0,58282
245,Penobscot,,,10053.0,4459
246,Greenville,34.702021,-82.462102,10787.0,29673
247,Grayson,36.715103,-80.985621,10798.0,24330
248,Laurens,34.404006,-82.233581,10801.0,29692
249,Lafayette,42.701900,-89.869700,7810.0,53504
250,Hawaii,18.992222,-155.668056,54390.0,96772
251,Cochise,32.060300,-109.893100,160.0,85606
252,Yavapai,34.351111,-111.700556,112.0,85544
253,Navajo,34.939400,-110.303300,113.0,86032
254,Cochise,,,114.0,85245
255,Yavapai,,,115.0,85544
256,Maricopa,33.422500,-111.912200,116.0,85281
257,Maricopa,33.441700,-112.158300,117.0,85043
258,Pinal,32.551700,-111.300000,118.0,85245
259,Yuma,32.721400,-114.710600,120.0,85364
260,San Juan,36.690000,-108.481400,2442.0,87416
261,Maricopa,33.388100,-112.861700,6008.0,85036
262,Franklin,35.462382,-93.804926,201.0,72949
263,Woodruff,35.260102,-91.363426,202.0,72006
264,Ouachita,33.564800,-92.791700,203.0,71701
265,Crawford,35.351361,-94.294349,7040.0,72956
266,Conway,35.127591,-92.790273,7135.0,72110
267,Desha,33.986501,-91.315788,7246.0,71639
268,Hempstead,33.609400,-93.792400,7825.0,71838
269,Garland,34.442500,-93.026200,166.0,71901
270,Pulaski,34.753500,-92.198700,167.0,72117
271,St Francis,34.980600,-90.872200,168.0,72335
272,Lafayette,33.359200,-93.464900,169.0,71860
273,Hot Spring,34.434100,-92.904900,170.0,72105
274,Pulaski,34.635997,-92.409602,171.0,72103
275,Phillips,34.462900,-90.598700,173.0,72342
276,Hot Spring,34.427200,-92.894100,174.0,72104
277,Jefferson,34.422800,-92.140600,6009.0,72132
278,Independence,35.678442,-91.408761,6641.0,72562
279,Pope,35.311000,-93.235100,8055.0,72801
280,Wilbarger,,,127.0,76384
281,Calhoun,,,3436.0,77978
282,Maverick,28.829535,-100.552234,3437.0,78852
283,Hidalgo,26.222222,-98.394444,3438.0,78572
284,Webb,27.566700,-99.508900,3439.0,78041
285,Nueces,27.850000,-97.616700,3440.0,78410
286,Nueces,27.819412,-97.419203,3441.0,78403
287,Cameron,26.133056,-97.638888,3442.0,78586
288,Victoria,,,3443.0,77903
289,Taylor,,,3517.0,75951
290,Pecos,,,3520.0,79735
291,Hardeman,,,3521.0,79252
292,Coke,,,3523.0,79506
293,Haskell,,,3524.0,79521
294,Presidio,,,3525.0,79845
295,Crockett,,,3526.0,79740
296,Tom Green,,,3527.0,76902
297,Wilbarger,,,3623.0,76384
298,Jones,,,4938.0,79601
299,Nueces,27.606400,-97.311700,4939.0,78418
300,Goliad,28.712800,-97.214167,6178.0,77960
301,Wichita,,,55255.0,75240
302,Los Angeles,33.816647,-118.244841,50216.0,90749
303,Custer,41.421928,-100.195610,2216.0,69120
304,Fulton,33.761100,-84.389200,54877.0,30303
305,Cook,,,54455.0,60603
306,Richmond,33.487881,-81.992520,54322.0,30904
307,Monmouth,40.2233,-74.09,10157.0,7754
308,Grafton,,,7395.0,3217
309,Gwinnett,,,54881.0,30096
310,Clark,37.193787,-99.763073,1259.0,67831
311,Jefferson,29.964938,-93.891283,10568.0,77642
312,Pitkin,39.363087,-106.821930,7458.0,81611
313,Nueces,,,55449.0,78380
314,Ellis,,,55450.0,75125
315,New Madrid,36.514700,-89.561700,2167.0,63869
316,Randolph,39.552200,-92.638100,2168.0,65244
317,Putnam,,,6563.0,72315
318,Dunklin,36.585200,-90.177900,7604.0,63933
319,Stoddard,36.868206,-89.840173,7749.0,63846
320,Nodaway,40.287700,-94.791300,7754.0,64434
321,Mayes,36.222058,-95.277064,7757.0,74362
322,Johnson,38.753800,-93.998300,7848.0,64040
323,Fulton,,,54284.0,30005
324,Clarke,,,55709.0,30607
325,Montgomery,,,55028.0,37042
326,Garfield,39.517300,-107.729900,10755.0,81650
327,Cape May,39.2908,-74.6364,2378.0,8223
328,Salem,39.6831,-75.5083,2384.0,8070
329,Attala,33.014700,-89.675300,55220.0,39160
330,Cass,41.409000,-95.000000,1124.0,50022
331,Harris,29.717200,-95.190800,10638.0,77506
332,Jefferson,29.866497,-93.965150,55309.0,77640
333,Fairbanks North Star,64.847743,-147.735063,79.0,99701
334,Harper,37.241900,-98.233600,1260.0,67009
335,Orleans,30.000000,-90.000000,10639.0,70129
336,Marshall,37.048333,-88.353889,55308.0,42029
337,Los Angeles,33.780300,-118.240000,55557.0,90744
338,Nemaha,40.388300,-95.846400,2215.0,68305
339,Butler,37.678454,-96.971930,1261.0,67010
340,Butler,37.686085,-96.964982,6791.0,67010
341,Woodruff,,,181.0,72006
342,Rockingham,,,54801.0,27247
343,Oxford,,,50999.0,4964
344,Mower,43.670638,-92.969284,1960.0,55912
345,Mower,43.701400,-92.962600,1961.0,55912
346,Travis,30.303300,-97.612800,3548.0,78724
347,Travis,30.250000,-97.716667,3549.0,78702
348,Travis,30.209800,-97.612900,7900.0,78617
349,Mercer,,,54367.0,8603
350,Travis,,,54940.0,78751
351,Orange,33.688721,-117.834793,50200.0,92614
352,Hays,29.780600,-97.989400,55144.0,78666
353,Kern,35.483736,-119.029856,10650.0,93308
354,Iowa City,,,55742.0,53526
355,Douglas,38.789700,-95.205000,1262.0,66006
356,Douglas,38.764905,-95.192006,8020.0,66006
357,Kossuth,43.292628,-94.217075,1125.0,50517
358,Penobscot,,,783.0,0
359,Penobscot,,,784.0,0
360,Hancock,44.3817,-68.2869,1466.0,4609
361,Washington,44.9136,-67.0033,1468.0,4631
362,Penobscot,45.6078,-68.5444,1474.0,4460
363,Ascension,30.200000,-91.000000,10319.0,70734
364,Candler,,,10320.0,28728
365,Brazoria,29.002000,-95.394000,55311.0,77541
366,Jefferson,,,55881.0,77642
367,Penobscot,45.2497,-68.6483,10255.0,4493
368,Duval,30.314467,-81.662705,10008.0,32207
369,Queens,40.610654,-73.762218,55699.0,11691
370,North Slope,71.292000,-156.778600,7173.0,99723
371,Barron,45.401930,-91.840382,4102.0,54812
372,Colbert,,,55819.0,35631
373,Orleans,44.887379,-72.055357,3753.0,5872
374,Mercer,47.371389,-101.834444,2817.0,58571
375,Clay,42.828611,-96.951389,6092.0,57069
376,Platte,,,6204.0,82070
377,Mercer,47.281900,-101.319400,6469.0,58523
378,Brule,43.810800,-99.330300,7974.0,57325
379,Campbell,43.829400,-105.532200,8026.0,82732
380,Sheridan,44.690000,-106.109200,8028.0,82831
381,Campbell,43.721900,-105.768900,8030.0,82718
382,Silver Bow,45.929300,-112.519400,55866.0,59701
383,Henry,,,50911.0,24055
384,Henry,,,50912.0,24055
385,Anoka,,,55433.0,70546
386,Lake of The Woods,,,1963.0,56623
387,Jefferson,29.954321,-93.883592,55122.0,77643
388,Emmet,,,55944.0,49701
389,Otsego,42.694400,-74.924200,54863.0,13326
390,Bay,43.583100,-83.879400,7398.0,48708
391,Bay,,,7399.0,48700
392,Alameda,37.870331,-122.263370,50849.0,94720
393,North Slope,,,54155.0,99734
394,Kern,35.419181,-118.926643,10649.0,93306
395,Denver,39.669200,-105.001800,55200.0,80223
396,Boulder,,,55207.0,80301
397,Penobscot,,,10009.0,4458
398,Furnas,40.138100,-99.827200,2217.0,68926
399,Lewis,,,10490.0,13305
400,Lewis,,,54691.0,13305
401,Schuylkill,,,54456.0,17901
402,Amherst,,,3821.0,24526
403,Philadelphia,,,10021.0,19102
404,Republic,39.808100,-97.650500,1263.0,66935
405,Jackson,42.250000,-90.416700,1126.0,52031
406,Mitchell,39.457800,-98.112200,1264.0,67420
407,Beaver,40.733545,-80.314795,10285.0,15066
408,Dundy,,,2218.0,69021
409,Kern,35.093046,-119.443617,50170.0,93268
410,Kern,,,50622.0,93268
411,Los Angeles,34.384070,-118.494882,52096.0,91321
412,Swift,45.314444,-95.602777,1964.0,56215
413,Benton,,,7945.0,99337
414,Worcester,38.336100,-75.191900,6565.0,21811
415,Hampden,42.0476,-72.6478,55041.0,1001
416,Queens,,,7969.0,11105
417,Pointe Coupee,,,55958.0,70760
418,Harrison,40.261900,-94.040300,2114.0,64424
419,Harrison,,,7944.0,64424
420,Bethel,60.789700,-161.787778,6566.0,99559
421,San Bernardino,,,50538.0,91761
422,Campbell,44.285000,-105.378600,55477.0,82718
423,Porter,41.635000,-87.138700,10245.0,46304
424,Erie,,,10484.0,14218
425,Baltimore,39.213000,-76.472900,10485.0,21219
426,Trinity,40.646733,-123.498008,10282.0,96046
427,Kane,41.871914,-88.287721,50563.0,60510
428,Litchfield,41.5503,-73.4181,50564.0,6776
429,Monroe,42.990300,-77.801100,50565.0,14546
430,St Clair,38.660300,-90.131700,50566.0,62202
431,Monroe,43.651400,-76.903600,50568.0,14450
432,Denton,33.019646,-96.961986,50569.0,75067
433,Anderson,36.117200,-84.031700,50570.0,37754
434,Alameda,37.749308,-121.649866,50571.0,94550
435,Broward,26.287966,-80.166526,50572.0,33073
436,Cook,,,50573.0,60633
437,Cook,42.106250,-87.813738,50575.0,60062
438,Milwaukee,42.850556,-88.069722,50576.0,53132
439,Washington,43.192200,-88.159700,50577.0,53051
440,Montgomery,40.272440,-75.670351,50578.0,19464
441,Tazewell,40.681700,-89.516700,50721.0,61611
442,Gwinnett,33.930000,-84.237800,54392.0,30071
443,Shiawassee,,,54539.0,48429
444,Kankakee,41.033300,-87.867800,54659.0,60922
445,Herkimer,,,54660.0,13340
446,Kenosha,42.582500,-88.043600,54661.0,53104
447,Kane,,,54662.0,60120
448,Strafford,,,54663.0,3867
449,Polk,41.554200,-93.236100,54700.0,50169
450,Hendricks,39.744983,-86.494658,54925.0,46122
451,St Joseph,41.493600,-86.165800,54926.0,46595
452,La Porte,,,54956.0,46350
453,Erie,,,55013.0,16509
454,Du Page,41.733790,-88.084908,55014.0,60540
455,La Porte,,,55073.0,46342
456,Erie,42.078600,-80.070800,55074.0,16509
457,York,39.957800,-76.740800,55142.0,17402
458,Manitowoc,44.111900,-87.949400,55925.0,54247
459,Lassen,41.132500,-121.137222,10288.0,96009
460,Wayne,38.344100,-82.593800,55284.0,25530
461,King George,38.266700,-77.314700,54304.0,22485
462,Jackson,42.436111,-122.849958,10869.0,97503
463,Jefferson,,,10464.0,13603
464,Clark,,,10140.0,83409
465,Los Angeles,33.906953,-118.013105,54296.0,90639
466,Clark,36.231900,-115.122200,10761.0,89030
467,Clark,36.232000,-115.123750,55952.0,89030
468,Jackson,,,4104.0,54615
469,King,,,54860.0,98065
470,Macon,,,55021.0,37150
471,Gooding,42.699840,-114.822603,54514.0,83355
472,Washington,41.175556,-71.5711,6567.0,2807
473,Merrimack,,,52041.0,3229
474,Davis,40.703100,-92.425300,1127.0,52537
475,Steele,43.922500,-93.124700,1966.0,55917
476,Adams,,,55645.0,80014
477,Blount,,,55492.0,35079
478,Faribault,43.637500,-94.101667,1967.0,56013
479,Wells,,,1023.0,46714
480,Clarke,31.489400,-87.898900,55044.0,36545
481,Beauregard,30.860600,-93.375600,10488.0,70634
482,Ada,43.528000,-116.058300,10014.0,83716
483,St John The Baptist,,,55843.0,70068
484,Greenville,34.871811,-82.366035,10280.0,29614
485,Franklin,45.140614,-70.425577,50650.0,4982
486,Ontonagon,46.764400,-89.566900,10148.0,49971
487,Boundary,48.733900,-116.175200,6506.0,83845
488,Androscoggin,44.431667,-70.1619,10354.0,4254
489,Orange,44.1706,-72.0994,50539.0,5081
490,Franklin,44.892700,-74.074600,50277.0,12920
491,Aroostook,46.6334,-68.4361,10356.0,4732
492,Somerset,,,10835.0,4912
493,Koochiching,48.606700,-93.406600,10486.0,56649
494,Koochiching,48.608054,-93.404313,10487.0,56649
495,Boulder,40.011100,-105.334700,54679.0,80306
496,Boulder,40.011100,-105.334700,54680.0,80306
497,Boulder,39.991311,-105.500030,55931.0,80306
498,Boulder,,,55932.0,80306
499,Davis,40.886867,-111.885332,3665.0,84010
500,Summit,,,4263.0,84061
501,Emery,,,4264.0,0
502,Weber,41.254331,-111.848525,7132.0,84401
503,Middlesex,,,10556.0,1844
504,Ascension,,,10596.0,70734
505,Douglas,38.974022,-95.235078,10279.0,66044
506,Talladega,33.328107,-86.356825,54216.0,35044
507,Wood,,,7575.0,0
508,Cameron,,,54670.0,70643
509,Calhoun,28.570700,-96.833300,50404.0,77979
510,Cochise,,,55780.0,85603
511,Orange,,,10648.0,92621
512,Norfolk,42.235,-70.9672,1660.0,2184
513,Fort Bend,29.473100,-95.624400,55357.0,77481
514,Parker,32.778780,-97.694542,3627.0,76087
515,Palo Pinto,32.658100,-98.310300,3628.0,76484
516,Palo Pinto,32.872476,-98.425984,3557.0,76449
517,Somerset,45.6603,-69.812168,10555.0,4478
518,Washington,,,54866.0,2808
519,Clinton,38.607456,-89.524514,934.0,62230
520,Box Elder,41.501619,-111.993450,3666.0,84302
521,Grafton,,,10290.0,3222
522,Fairfield,41.1692,-73.1844,55042.0,6604
523,Suffolk,,,55445.0,11980
524,McLennan,,,10317.0,76706
525,Middlesex,40.475724,-74.446199,54829.0,8903
526,Cherokee,,,55166.0,29342
527,Custer,41.403100,-99.639200,2221.0,68822
528,Poweshiek,41.727800,-92.447900,1128.0,52211
529,Poweshiek,41.739400,-92.439400,7922.0,52211
530,Plymouth,,,55425.0,2301
531,Bibb,,,54243.0,31298
532,Kings,40.699357,-73.976392,54914.0,11205
533,Providence,,,51029.0,2912
534,Haywood,35.543800,-89.198000,55081.0,38012
535,Hancock,,,55180.0,4416
536,Terry,,,3558.0,79316
537,Cameron,25.913100,-97.521400,3559.0,78520
538,Morgan,,,10683.0,80723
539,Williams,41.471822,-84.543148,2903.0,43506
540,Defiance,41.237206,-84.399756,7657.0,43512
541,Brazos,30.647410,-96.372316,3561.0,77801
542,Brazos,30.721700,-96.460800,6243.0,77807
543,Union,40.955015,-76.878843,54333.0,17837
544,Los Angeles,34.178056,-118.315556,375.0,91502
545,Los Angeles,34.176400,-118.314700,6013.0,91502
546,Kankakee,41.154610,-87.854780,52034.0,60915
547,Vermillion,,,51000.0,61832
548,Mohave,35.197044,-114.570669,152.0,86430
549,Coconino,36.936614,-111.483872,153.0,86040
550,Clark,36.015510,-114.738006,154.0,89006
551,Sacramento,38.706750,-121.158443,441.0,95630
552,Shasta,40.646934,-122.626973,442.0,96003
553,Shasta,40.611858,-122.446441,443.0,96003
554,Sacramento,38.637350,-121.220198,444.0,95630
555,Shasta,40.717455,-122.422274,445.0,96003
556,Merced,37.098671,-121.047718,446.0,95376
557,San Bernardino,34.295334,-114.140222,447.0,92267
558,Shasta,40.628115,-122.467509,450.0,96003
559,Trinity,40.797296,-122.762553,451.0,96003
560,Fremont,43.417872,-108.177545,505.0,82649
561,Gunnison,38.453191,-107.337483,512.0,81401
562,Larimer,40.376771,-105.509665,513.0,80517
563,Montrose,38.451753,-107.539299,514.0,81401
564,Larimer,40.421031,-105.223804,515.0,80538
565,Summit,39.878805,-106.332725,516.0,80459
566,Larimer,40.344080,-105.534308,517.0,80517
567,Larimer,40.364996,-105.236032,518.0,80539
568,Larimer,40.365056,-105.325074,519.0,80537
569,Mesa,39.193660,-108.044088,520.0,81401
570,Mesa,39.143808,-108.004777,521.0,81401
571,Fremont,,,674.0,80251
572,Bonneville,43.334849,-111.205752,850.0,83428
573,Flathead,48.341521,-114.014430,2203.0,59919
574,Big Horn,45.307406,-107.957515,2204.0,59034
575,Natrona,42.476600,-106.795901,4176.0,82620
576,Platte,42.467254,-104.955526,4177.0,82213
577,Platte,42.289868,-104.760634,4178.0,82214
578,Carbon,42.174301,-106.880543,4180.0,82334
579,Carbon,42.156127,-106.908483,4182.0,82334
580,Park,44.502897,-109.181228,4183.0,82414
581,Lincoln,42.027013,-110.063973,4185.0,83101
582,Tuolumne,37.946927,-120.528211,6158.0,95376
583,Montrose,38.510573,-107.625335,6159.0,81401
584,Grant,47.957511,-118.977323,6163.0,99133
585,Lake,39.094197,-106.352331,6208.0,80461
586,Elmore,43.357066,-115.451517,6395.0,83647
587,Gem,43.930462,-116.437172,6396.0,83617
588,Ada,43.537685,-116.093756,6397.0,83706
589,Minidoka,42.669899,-113.483175,6398.0,83350
590,Lewis and Clark,46.649026,-111.727874,6400.0,59601
591,Sierra,33.153358,-107.191973,6402.0,87901
592,Jackson,42.121168,-122.547896,6403.0,97520
593,Wasatch,40.404354,-111.528446,6404.0,84601
594,Daggett,40.914646,-109.421662,6405.0,84023
595,Benton,46.266780,-119.589821,6406.0,99320
596,Yakima,46.618413,-120.477759,6407.0,98901
597,Park,44.513767,-109.129588,6408.0,82414
598,Natrona,42.548412,-106.717536,6409.0,82620
599,Sierra,,,7066.0,95734
600,Park,44.508169,-109.170661,7317.0,82414
601,Montezuma,37.575220,-108.574002,7372.0,81302
602,Montezuma,37.429538,-108.574871,7373.0,81302
603,Park,44.512699,-109.129878,7541.0,82414
604,Mohave,36.015510,-114.738006,8902.0,86430
605,Taylor,30.068800,-83.525300,50466.0,32347
606,Osage,38.763300,-95.852800,1265.0,66413
607,Chittenden,44.4917,-73.208056,589.0,5401
608,Chittenden,44.4814,-73.2239,3754.0,5401
609,Kit Carson,,,490.0,80807
610,Coffey,38.113400,-95.445800,1266.0,66839
611,Lewis,43.618874,-75.305460,50652.0,13368
612,Garfield,41.914400,-98.990600,2222.0,68823
613,McDonough,40.548300,-90.540800,935.0,61422
614,Jerome,42.560876,-114.057461,50895.0,83335
615,Bates,38.264408,-94.344385,2115.0,64730
616,San Patricio,,,54291.0,78469
617,Mitchell,31.386900,-84.080000,55304.0,31716
618,Los Angeles,33.776970,-118.228210,10601.0,90748
619,Los Angeles,,,50540.0,90754
620,Kern,,,54300.0,93561
621,Kern,35.060600,-118.106100,10191.0,93581
622,Kern,35.106100,-118.311400,54909.0,93561
623,St Clair,42.818300,-82.485600,54965.0,48079
624,Churchill,39.966300,-117.855700,52015.0,89406
625,Churchill,39.966800,-117.855800,10681.0,89406
626,Lowndes,,,55082.0,39740
627,Calcasieu,30.160800,-93.345000,55165.0,70665
628,Mohave,,,55665.0,85360
629,Riverside,33.615700,-114.686500,55295.0,92225
630,Monroe,,,55197.0,28273
631,Santa Clara,,,55393.0,45139
632,Clark,36.702000,-114.512500,55642.0,89030
633,San Diego,32.583571,-116.930907,54936.0,92179
634,Solano,38.398867,-121.923973,55499.0,95688
635,Fresno,,,55508.0,93640
636,Kern,,,55509.0,93206
637,San Diego,32.562448,-116.943869,55510.0,92154
638,San Diego,,,55511.0,92108
639,San Diego,32.796491,-116.972071,55512.0,92020
640,San Diego,33.121943,-117.117441,55513.0,92029
641,Kern,35.075000,-118.315800,10586.0,93501
642,Contra Costa,,,54001.0,94565
643,Kern,34.955600,-118.844000,55656.0,93243
644,Marshall,,,55119.0,42029
645,Whatcom,48.990500,-122.273300,54476.0,98295
646,Du Page,41.810800,-88.148600,50722.0,60563
647,West Baton Rouge,,,55327.0,70710
648,Jefferson,30.077500,-94.234444,55465.0,77713
649,Wood,44.555833,-89.946389,55834.0,54454
650,Contra Costa,38.030071,-121.873004,55217.0,94565
651,San Diego,,,50963.0,95134
652,Los Angeles,34.138467,-118.125600,10262.0,91125
653,Maricopa,,,7164.0,85239
654,Mayes,,,50991.0,74362
655,King,,,54862.0,98065
656,Santa Clara,,,55748.0,95164
657,Santa Clara,36.999000,-121.536300,55810.0,95020
658,Franklin,44.506315,-70.242312,55031.0,4239
659,Acadia Parish,,,55173.0,70535
660,Monterey,36.224758,-121.124633,55811.0,93930
661,Sutter,39.136500,-121.639700,10349.0,95993
662,Sutter,39.052922,-121.696072,10350.0,95993
663,Solano,38.242158,-121.854722,55625.0,94585
664,Solano,38.221577,-121.868333,55626.0,94585
665,Solano,38.226752,-121.843271,55627.0,94585
666,Sutter,39.139200,-121.638700,55813.0,95993
667,Sutter,39.109344,-121.609310,55847.0,95993
668,Solano,,,55855.0,94533
669,Santa Cruz,,,50968.0,95076
670,Santa Clara,37.405800,-121.927200,50748.0,95134
671,Polk,28.054200,-81.805800,54658.0,33823
672,Polk,28.053500,-81.805900,55833.0,33823
673,Grundy,41.411944,-88.332778,55216.0,60450
674,Contra Costa,38.014423,-121.790679,55963.0,94509
675,Santa Roise,,,55242.0,32571
676,Calvert,38.434400,-76.441700,6011.0,20657
677,Hidalgo,26.340300,-98.190000,55123.0,78539
678,Cambria,40.474167,-78.701400,10641.0,15931
679,Middlesex,,,1594.0,2139
680,Furnas,40.226700,-100.135800,2223.0,69022
681,Cumberland,43.6575,-70.375,55294.0,4092
682,Bristol,41.8312,-71.1239,55026.0,2715
683,Essex,,,50797.0,7105
684,Wagoner,36.011900,-95.696700,55225.0,74014
685,New Port,,,55048.0,2878
686,Camden,39.9175,-75.1192,10751.0,8104
687,Dunklin,,,2118.0,63933
688,Franklin,40.371700,-98.723600,2225.0,68932
689,Monterey,36.225000,-121.127800,10294.0,93930
690,Hartford,41.7639,-72.6925,50498.0,6106
691,Sandusky,41.377116,-83.161388,55701.0,43420
692,Bastrop,30.147800,-97.271400,55154.0,78602
693,New London,41.6242,-72.041667,54657.0,6383
694,Wayne,,,54235.0,44270
695,Jefferson,,,2828.0,43900
696,Santa Clara,37.000100,-121.536700,10034.0,95020
697,Santa Clara,37.429848,-122.176284,10168.0,94305
698,Clinton,38.610600,-89.358300,936.0,62231
699,White,38.096700,-88.163100,937.0,62821
700,Buncombe,35.473100,-82.541700,2706.0,28704
701,Anson,34.983300,-79.877500,2707.0,28091
702,Chatham,35.595000,-79.049500,2708.0,27559
703,Wayne,35.379866,-78.087795,2709.0,27530
704,Madison,35.702527,-82.710571,2710.0,28753
705,Carteret,34.745765,-76.810259,2711.0,28557
706,Person,36.483300,-79.073100,2712.0,27573
707,New Hanover,34.283056,-77.985278,2713.0,28401
708,Montgomery,35.206741,-80.064830,2714.0,27559
709,Haywood,,,2715.0,28700
710,Robeson,34.587538,-78.975520,2716.0,28358
711,Darlington,34.418500,-80.165700,3250.0,29550
712,Darlington,34.401700,-80.158900,3251.0,29550
713,Brunswick,33.959700,-78.011400,6014.0,28461
714,Wake,35.633400,-78.955600,6015.0,27562
715,Person,36.527800,-78.891700,6250.0,27573
716,Wayne,35.375789,-78.098052,7538.0,27530
717,NOT IN FILE,,,7539.0,0
718,nan,,,7727.0,0
719,nan,,,7728.0,0
720,Richmond,34.839200,-79.740600,7805.0,28345
721,Rowan,35.731400,-80.601900,7826.0,28147
722,nan,,,55406.0,31326
723,Calhoun,28.513929,-96.794154,10167.0,77979
724,Catawaba,,,55488.0,28658
725,Lyon,,,10018.0,89408
726,Carroll,39.361700,-93.495600,2120.0,64633
727,Los Angeles,33.875900,-118.249100,10169.0,90746
728,Jefferson,43.984200,-75.622500,10620.0,13619
729,Hillsborough,27.860500,-82.390300,10204.0,33569
730,Polk,27.908000,-81.918500,50633.0,33830
731,Shelby,35.082107,-90.134776,10729.0,38113
732,Monroe,41.138600,-92.646700,10855.0,52553
733,Jasper,37.165300,-94.308900,2121.0,64836
734,Teton,43.909653,-111.285421,10028.0,83424
735,Iberville,30.229400,-91.065000,55404.0,70776
736,Dubuque,42.298210,-91.011974,1129.0,52033
737,Monroe,43.756100,-90.780600,4107.0,54619
738,Tippecanoe,40.417500,-86.844700,50935.0,47905
739,Black Hawk,42.512000,-92.476000,1130.0,50613
740,Black Hawk,42.526700,-92.439400,1131.0,50613
741,Kossuth,43.066100,-94.230600,7966.0,50511
742,Eagle,39.648565,-106.949394,54630.0,81637
743,Giles,37.343900,-80.765000,52089.0,24124
744,Linn,41.979003,-91.671533,10171.0,52402
745,Deschutes,,,50980.0,97709
746,Saguache,37.753606,-106.104670,491.0,81125
747,Osage,38.683900,-91.755800,2169.0,65024
748,Ulster,41.828814,-74.131877,579.0,12440
749,Ulster,41.821700,-74.049700,2481.0,12471
750,Sullivan,,,2483.0,12765
751,Greene,,,2485.0,12482
752,Ulster,,,2486.0,12471
753,Greene,42.343500,-73.835300,2487.0,12051
754,Peoria,40.595800,-89.663100,856.0,61607
755,Peoria,,,860.0,61614
756,Fulton,40.466300,-89.984100,6016.0,61520
757,Tazewell,40.557686,-89.666990,7384.0,61554
758,Peoria,,,7895.0,61602
759,Logan,40.398056,-89.387500,7896.0,62656
760,San Bernardino,34.205600,-117.334400,436.0,92407
761,Butte,,,437.0,95965
762,Butte,,,438.0,95965
763,Merced,37.069200,-121.077200,448.0,95322
764,Los Angeles,,,905.0,91310
765,Los Angeles,,,6196.0,91310
766,San Bernardino,34.307444,-117.323548,7072.0,92345
767,Butte,,,7129.0,95965
768,Union,41.113600,-94.347200,1206.0,50801
769,Muscatine,,,1218.0,52759
770,Guthrie,,,7584.0,0
771,De Soto,32.030556,-93.569167,51.0,71052
772,St Mary,29.822222,-91.542500,1400.0,70514
773,St Mary,29.822222,-91.542500,1435.0,70538
774,Rapides,31.395000,-92.716667,6190.0,71447
775,Keith,41.211400,-101.668100,785.0,69153
776,Lincoln,40.959405,-100.397905,2227.0,69123
777,Gosper,40.693600,-99.817800,2228.0,68850
778,Gosper,40.683900,-99.744700,2229.0,68850
779,Mason,,,3938.0,25300
780,Adams,40.846525,-84.933264,50316.0,46733
781,Pueblo,38.266700,-104.614400,460.0,81003
782,Fremont,38.434400,-105.250000,462.0,81212
783,Seward,37.161100,-100.761900,1230.0,67901
784,Ford,37.732800,-99.949700,1233.0,67801
785,Barton,38.410000,-98.868900,1235.0,67530
786,Otero,38.049200,-103.713600,6516.0,81067
787,Pueblo,38.284400,-104.530800,7995.0,81001
788,Washington,39.612500,-97.277800,8037.0,66937
789,Caledonia,44.326335,-72.035894,788.0,5821
790,Windsor,,,3708.0,5030
791,Orange,43.9921,-72.1282,3709.0,5033
792,Windsor,43.381225,-72.598242,3710.0,5142
793,Chittenden,44.6356,-73.12,3711.0,5468
794,Franklin,44.6534,-72.9961,3712.0,5454
795,Rutland,43.6368,-72.9758,3714.0,5701
796,Addison,44.0249,-73.1768,3716.0,5753
797,Chittenden,44.641433,-73.113364,3717.0,5468
798,Chittenden,44.6381,-73.1625,3720.0,5468
799,Rutland,,,3722.0,5737
800,Rutland,43.603,-72.9923,3723.0,5701
801,Addison,43.8954,-73.1007,3724.0,5769
802,Addison,43.898584,-73.053125,3725.0,5769
803,Franklin,,,3726.0,5478
804,Addison,44.0661,-73.2158,3728.0,5753
805,Washington,,,6456.0,12837
806,Thurston,46.974912,-122.635795,3878.0,98597
807,Wayne,,,54804.0,48125
808,Hernando,,,10333.0,34605
809,Henry,39.952800,-85.503900,7763.0,47362
810,Franklin,39.938900,-77.658300,7397.0,17201
811,Liberty,,,55426.0,77535
812,Lake,,,55537.0,46320
813,Neosho,37.683333,-95.454722,1267.0,66720
814,Neosho,37.695300,-95.458600,1268.0,66720
815,Neosho,37.637600,-95.470400,7018.0,66720
816,Harrison,,,55299.0,77017
817,Deuel,41.105600,-102.470300,2230.0,69129
818,Lewis,43.886100,-75.434200,10617.0,13305
819,Niagara,43.080400,-79.008200,50202.0,14302
820,Imperial,32.903826,-115.511949,50363.0,92251
821,Chelan,47.533611,-120.295278,3883.0,98801
822,Chelan,47.346111,-120.091700,6200.0,98801
823,Chelan,47.834700,-120.013300,6424.0,98801
824,Chelan,47.424722,-120.327500,8021.0,98801
825,Nueces,27.569700,-97.822800,10243.0,78343
826,Cherokee,,,10173.0,29705
827,Los Angeles,33.905800,-118.403100,10213.0,90245
828,Honolulu,21.311667,-158.113889,10194.0,96707
829,Plaquemines,29.811956,-90.008430,55857.0,70037
830,Jackson,30.341700,-88.483300,52084.0,39581
831,Contra Costa,,,52080.0,94520
832,Kern,35.363900,-119.659200,52081.0,93251
833,Riverside,,,52082.0,93251
834,Kings,,,52083.0,93210
835,Kern,35.113300,-119.470600,52085.0,93268
836,Kings,,,52086.0,93210
837,Kern,35.363300,-119.675600,52104.0,93251
838,Contra Costa,37.932222,-122.389722,52105.0,94802
839,Kern,35.440600,-118.961700,52107.0,93306
840,Contra Costa,37.941800,-122.390900,52109.0,94802
841,Yavapai,35.518600,-113.310800,54245.0,86434
842,Will,41.569700,-88.078900,10903.0,60441
843,San Diego,32.799200,-117.151700,10175.0,92123
844,Hampden,,,7396.0,1020
845,Livingston,39.783388,-93.564112,2122.0,64601
846,Twin Falls,42.622513,-114.500930,10806.0,83328
847,Kenai Peninsula,61.186100,-151.035600,96.0,99682
848,Kenai Peninsula,60.392331,-149.665603,6291.0,99572
849,Kenai Peninsula,60.693500,-151.387400,6292.0,99635
850,Anchorage,61.168972,-149.911038,6293.0,99518
851,Henry,,,55497.0,24112
852,Clermont,38.9917,-84.2981,2830.0,45200
853,Butler,,,2831.0,45100
854,Hamilton,39.1128,-84.8036,2832.0,45100
855,Boone,,,6018.0,41100
856,Clermont,38.8675,-84.2289,6019.0,45200
857,Butler,,,7158.0,45100
858,Choctaw,33.379200,-89.208900,55694.0,39735
859,Kenton,,,55394.0,41010
860,Jackson,,,55500.0,62966
861,Lewis,46.622500,-122.913100,55662.0,98532
862,Choctaw,33.376100,-89.218300,55076.0,39735
863,Marion,39.763100,-86.166700,992.0,46225
864,Hawaii,19.478976,-154.888362,52028.0,96778
865,Orleans,44.938056,-72.18,3730.0,5855
866,Orleans,44.937579,-72.179968,3731.0,5855
867,Kauai,21.899583,-159.585042,6474.0,96705
868,Santa Cruz,31.363472,-110.931343,6515.0,85621
869,Ocean,40.0613,-74.1686,54640.0,8701
870,Jefferson,,,52108.0,77641
871,Cobb,33.877500,-84.460300,54816.0,30339
872,Clark,45.649700,-122.725600,7605.0,98660
873,Polk,27.911400,-81.600600,10275.0,33859
874,Shasta,40.534454,-121.959109,50156.0,96088
875,Grant,32.695600,-108.122500,54667.0,88043
876,King,47.433480,-121.648300,54387.0,98045
877,Wocester,,,10408.0,1610
878,Coahoma,34.184500,-90.562662,2059.0,38614
879,Coahoma,34.205000,-90.577777,2060.0,38614
880,Coahoma,34.183000,-90.562100,55395.0,38614
881,Clay,39.373966,-97.127211,1270.0,67432
882,Belknap,43.440538,-71.595975,10276.0,3276
883,Clay,,,55491.0,62839
884,Evangeline,,,55305.0,71367
885,Ashtabula,,,2835.0,44000
886,Lake,,,2837.0,44100
887,Cuyahoga,,,2838.0,44100
888,Lake,,,6020.0,44100
889,Warren,41.838900,-79.005600,8225.0,16365
890,Onondaga,43.066400,-76.214400,10621.0,13209
891,Cuyahoga,,,2906.0,44100
892,Cuyahoga,,,2908.0,44100
893,Cuyahoga,,,2909.0,44100
894,Grant,44.458696,-118.720601,50921.0,97869
895,Harris,29.625500,-95.067000,10741.0,77507
896,Fulton,33.770800,-84.386100,55152.0,30308
897,Lake,47.286573,-91.260531,10849.0,55614
898,Lenawee,42.068197,-83.976005,1818.0,49236
899,Chippewa,46.329200,-84.384700,1868.0,49724
900,Chippewa,46.329200,-84.384700,6369.0,49725
901,Lassen,40.368338,-120.264848,10777.0,96136
902,Crawford,44.604921,-84.690578,10822.0,49738
903,Windham,41.712448,-71.822251,50736.0,6377
904,Genesee,43.085110,-83.669386,54751.0,48505
905,Kennebec,44.580175,-69.55452,10523.0,4901
906,Kalamazoo,42.281345,-85.494956,55101.0,49011
907,Otsego,45.030397,-84.730795,55102.0,49753
908,Northumberland,40.811189,-76.452951,10343.0,17832
909,Bastrop,30.145800,-97.550000,55168.0,78602
910,Kane,,,55169.0,60119
911,Washtenaw,,,55431.0,48160
912,Coahoma,,,55432.0,38614
913,Palm Beach,,,55434.0,33430
914,Manatee,,,55435.0,34220
915,Broward,,,55436.0,33441
916,Elko,,,55673.0,89822
917,Gloucester,,,55113.0,8093
918,Fresno,36.180700,-120.388500,50131.0,93210
919,Lawrence,,,55443.0,47421
920,Union,40.6322,-74.2156,50006.0,7036
921,Montgomery,37.037344,-95.612689,1271.0,67337
922,St James,30.049700,-90.683900,10301.0,70052
923,Brunswick,33.944384,-78.011824,10378.0,28461
924,Person,36.435000,-78.961900,10379.0,27573
925,Linn,42.292500,-91.558100,1132.0,52218
926,Portsmouth Commonwea,,,10071.0,23703
927,Jefferson,42.855463,-88.729920,55011.0,53190
928,Thomas,39.394414,-101.058372,1272.0,67701
929,Duplin,35.021700,-77.858300,10381.0,28349
930,Branch,41.932216,-84.995450,1819.0,49036
931,Coleman,,,3566.0,76834
932,Douglas,42.961126,-123.359138,50993.0,97469
933,City of Richmond,,,54081.0,23261
934,Edgecomb,,,10384.0,27809
935,Bladen,34.647155,-78.641510,10380.0,28337
936,Robeson,34.590000,-78.996800,10382.0,28359
937,Plumas,40.303422,-121.244431,10661.0,96020
938,El Paso,38.824444,-104.833333,492.0,80903
939,El Paso,38.881389,-104.816944,493.0,80907
940,El Paso,38.855465,-104.933062,494.0,80829
941,El Paso,,,495.0,80863
942,El Paso,38.973655,-104.901141,7233.0,80840
943,El Paso,38.876100,-104.816900,7730.0,80907
944,El Paso,38.633451,-104.705770,8219.0,80817
945,El Paso,38.628100,-104.706900,55283.0,80817
946,La Paz,34.168264,-114.277356,7179.0,85344
947,Riverside,33.586000,-116.087300,10300.0,92254
948,CAlhoun,,,55386.0,29202
949,Hampden,42.15725,-72.42281,52166.0,1095
950,Boone,38.964646,-92.316768,2123.0,65205
951,Klamath,,,55962.0,97623
952,Morgan,40.241500,-103.631000,10682.0,80723
953,Coshocton,,,2840.0,43100
954,Pickaway,,,2843.0,43100
955,Franklin,,,312.0,43200
956,Franklin,,,7279.0,43000
957,San Diego,32.765000,-117.163900,10600.0,92108
958,nan,,,7756.0,0
959,nan,,,52087.0,23323
960,Fulton,,,54457.0,30201
961,Calrion,,,54144.0,16214
962,Cumberland,39.4547,-75.2014,2379.0,8313
963,Ocean,39.6893,-74.2618,2380.0,8050
964,Cape May,39.0269,-74.8772,2382.0,8242
965,Atlantic,39.3662,-74.4441,2383.0,8401
966,Cumberland,39.3757,-74.9654,5083.0,8332
967,Cumberland,39.451,-75.0578,7288.0,8360
968,Gloucester,,,8008.0,8332
969,Anne Arundel,39.180000,-76.538900,602.0,21226
970,Baltimore,39.323604,-76.365119,1552.0,21220
971,Baltimore,,,1553.0,21230
972,Anne Arundel,,,1554.0,21122
973,Baltimore,39.421700,-76.508700,1555.0,21057
974,Harford,39.442836,-76.221761,1556.0,21130
975,Baltimore,,,1557.0,21205
976,Baltimore,39.236900,-76.513300,1559.0,21222
977,Baltimore,,,1560.0,21230
978,Lake,41.678900,-87.420000,55066.0,46312
979,Northhampton,40.617500,-75.314700,55690.0,18015
980,Hartford,41.7495,-72.6524,563.0,6162
981,York,39.737500,-76.306666,55524.0,17314
982,Lancaster,,,55643.0,17547
983,Burlington,,,55675.0,8505
984,Shasta,40.879719,-121.720342,10652.0,96013
985,Union,,,50385.0,7105
986,Accomack,37.989200,-75.540000,55381.0,23415
987,San Juan,,,54669.0,87413
988,Kay,36.688000,-97.088000,52188.0,74603
989,Merrimack,,,54384.0,3283
990,Strafford,43.236111,-70.817222,54418.0,3869
991,Rock Island,41.712216,-90.279679,55188.0,61242
992,York,43.226977,-70.810888,50702.0,3908
993,Rosebud,45.975200,-106.654700,10784.0,59323
994,Cook,41.777500,-87.823300,54556.0,60501
995,New York,40.728100,-73.974200,2493.0,10009
996,Kings,40.705200,-73.980700,2496.0,11201
997,New York,40.753333,-73.975833,2502.0,10017
998,New York,40.771285,-73.991150,2503.0,10019
999,New York,40.768000,-73.951500,2504.0,10021
1000,Wood,44.430600,-89.780800,3971.0,54494
1001,Portage,44.664700,-89.651100,3972.0,54455
1002,Portage,44.515300,-89.585000,3973.0,54481
1003,Wood,,,3974.0,54494
1004,Portage,44.488900,-89.575600,3975.0,54481
1005,New Castle,39.730200,-75.537100,591.0,19801
1006,New Castle,39.600408,-75.626811,592.0,19706
1007,New Castle,39.738860,-75.503840,593.0,19809
1008,New Castle,,,596.0,19801
1009,New Castle,39.728300,-75.628900,597.0,19808
1010,Somerset,37.983300,-75.833300,1563.0,21817
1011,Northampton,37.271700,-75.968200,3782.0,23316
1012,Accomack,37.706100,-75.703100,3785.0,23441
1013,New Castle,39.743600,-75.507200,7153.0,19809
1014,Alcona,,,1693.0,48700
1015,Allegan,,,1694.0,49000
1016,Muskegon,,,1695.0,49400
1017,Kalamazoo,,,1696.0,49000
1018,Manistee,,,1698.0,49700
1019,Iosco,,,1700.0,48700
1020,Newaygo,,,1701.0,49300
1021,Bay,,,1702.0,48700
1022,Iosco,,,1704.0,48800
1023,Iosco,,,1705.0,48800
1024,Otsego,,,1706.0,49700
1025,Newaygo,,,1707.0,49300
1026,Wexford,,,1708.0,49700
1027,Ottawa,,,1710.0,49500
1028,Iosco,,,1712.0,48700
1029,Mason,,,1713.0,49400
1030,Oscoda,,,1714.0,48600
1031,Van Buren,,,1715.0,49000
1032,Mecosta,,,1716.0,49300
1033,Emmet,,,1718.0,49700
1034,Genesee,,,1719.0,48500
1035,Bay,,,1720.0,48700
1036,Ionia,,,1722.0,48900
1037,Monroe,,,1723.0,48100
1038,Silver Bow,,,55797.0,59701
1039,Spartanburg,34.995300,-81.834400,52049.0,29329
1040,St Lucic,,,55727.0,34987
1041,Polk,,,55688.0,33860
1042,Carroll,,,7847.0,55058
1043,Valdez-Cordova,61.082800,-146.303300,390.0,99686
1044,Valdez-Cordova,61.976900,-146.549400,6305.0,99588
1045,Valdez-Cordova,61.130300,-146.364700,6306.0,99686
1046,Valdez-Cordova,61.083900,-146.252900,7841.0,99686
1047,Kern,,,54297.0,93561
1048,San Joaquin,37.912800,-121.261400,52115.0,95206
1049,McLean,,,7888.0,61761
1050,McLean,40.472800,-88.991900,7891.0,61701
1051,Logan,39.995000,-89.485833,8003.0,62634
1052,Clay,43.160600,-95.256900,1217.0,51301
1053,Riverside,,,10635.0,91720
1054,Calcasieu,,,50008.0,70669
1055,Tishomingo,,,55798.0,38852
1056,Adams,40.974,-94.7669,1134.0,50841
1057,San Bernardino,34.060600,-117.353300,55934.0,92324
1058,San Bernardino,34.060900,-117.353200,55935.0,92324
1059,Nueces,27.813900,-97.428300,55206.0,78407
1060,Worcester,42.471389,-71.743333,10553.0,1564
1061,Tompkins,42.451922,-76.485092,10286.0,14853
1062,Inyo,36.037200,-117.798100,10873.0,93527
1063,Inyo,36.019200,-117.791700,10874.0,93527
1064,Inyo,36.001900,-117.788600,10875.0,93527
1065,Newton,30.258800,-93.735300,55358.0,77614
1066,Taylor,37.320800,-85.361100,54850.0,42718
1067,Fosyth,,,54618.0,27107
1068,Fairfax,38.695000,-77.241100,50658.0,22079
1069,Hartford,41.750521,-72.652982,54945.0,6114
1070,New Haven,41.440497,-72.835134,50664.0,6492
1071,Wetzel,39.667200,-80.864200,50036.0,26155
1072,Whatcom,48.680178,-121.723294,54267.0,98237
1073,Tulsa,36.131900,-96.018100,50660.0,74107
1074,Union,40.601264,-74.266372,50960.0,7065
1075,Warren,40.8205,-75.0112,10012.0,7863
1076,Contra Costa,38.056900,-122.216100,55084.0,94525
1077,Houston,31.262356,-85.402737,54985.0,36303
1078,Hartford,,,50648.0,6010
1079,Hennepin,44.983300,-93.280382,10013.0,55405
1080,Marion,45.048467,-122.962761,50630.0,97305
1081,Lake,,,50629.0,32762
1082,Suffolk,40.734800,-73.386800,50649.0,11704
1083,Onondaga,43.004700,-76.114900,50662.0,13078
1084,Craven,35.130193,-77.167883,10525.0,28562
1085,Arlington,,,50663.0,22504
1086,Marion,39.734456,-86.189075,50647.0,46221
1087,Stanislaus,37.385300,-121.141000,50632.0,95313
1088,Montgomery,40.048889,-86.899200,1024.0,47933
1089,Saline,40.625300,-96.955800,2231.0,68333
1090,Worth,,,752.0,31010
1091,Worth,,,753.0,31010
1092,Worcester,,,10404.0,1570
1093,Lake,28.811828,-81.865273,10020.0,34748
1094,Polk,28.054850,-81.798166,10188.0,33823
1095,Sanilac,43.271944,-82.613889,7497.0,48422
1096,Hillsborough,43.0056,-71.9517,54515.0,3047
1097,Fergus,,,10283.0,59457
1098,Kern,,,54298.0,93561
1099,Kern,,,54299.0,93561
1100,Iron,46.106278,-88.334531,1821.0,49920
1101,Culpeper,38.27,-78.035,3823.0,22701
1102,Barron,45.523600,-92.025600,4112.0,54829
1103,St Bernard,29.932700,-89.978200,54677.0,70043
1104,Frontier,40.631453,-100.515161,2232.0,69025
1105,Hunterdon,,,10616.0,8848
1106,Payne,35.982597,-96.775683,2975.0,74023
1107,Manatee,,,55613.0,34221
1108,Summit,,,7576.0,44200
1109,Fluvanna,,,55814.0,22963
1110,Warren,37.777550,-79.891450,55939.0,22630
1111,Jackson,,,50945.0,97503
1112,Somerset,39.801637,-79.368214,52036.0,15424
1113,Douglas,46.237200,-91.797800,3976.0,54838
1114,Douglas,46.376400,-91.766900,7058.0,54873
1115,Buffalo,44.308333,-91.911111,4140.0,54610
1116,Rusk,45.491826,-91.047211,4142.0,54848
1117,Vernon,43.558900,-91.232500,4143.0,54632
1118,Buffalo,44.303583,-91.912647,4271.0,54610
1119,Dunn,,,7863.0,54703
1120,Kern,35.440539,-119.012861,54410.0,93308
1121,Washington,43.103300,-73.536900,50280.0,12834
1122,Dane,43.045300,-89.253900,55770.0,53713
1123,Pittsylvania,,,50954.0,24543
1124,Patrick,36.666866,-80.447897,3825.0,24053
1125,Bristol,41.6731,-70.9994,52026.0,2747
1126,Grafton,,,54409.0,3755
1127,Pinal,32.578011,-110.852608,54594.0,85623
1128,Honolulu,21.300036,-158.098615,10334.0,96707
1129,Webster,42.260162,-94.069243,1135.0,50530
1130,Montgomery,39.727249,-84.211084,2847.0,45439
1131,Montgomery,39.608800,-84.292100,2848.0,45342
1132,Adams,38.636100,-83.693900,2850.0,45101
1133,Montgomery,39.766700,-84.173900,2851.0,45402
1134,Shelby,40.279170,-84.190970,2852.0,45365
1135,Montgomery,,,2854.0,45342
1136,Adams,38.690300,-83.480300,6031.0,45144
1137,Wayne,,,55088.0,48126
1138,Bethel,61.587500,-159.531700,7182.0,99557
1139,Penobscot,44.8242,-68.7094,55068.0,4401
1140,Alamance,35.9483,-79.3244,10258.0,27340
1141,Harris,29.713414,-95.134508,55464.0,77536
1142,Dekalb,,,54830.0,30033
1143,Imperial,33.164600,-115.616000,10632.0,92233
1144,Kern,35.714400,-119.233700,10840.0,93215
1145,Wright,45.041378,-93.790522,1969.0,55328
1146,Contra Costa,38.016900,-121.843900,55333.0,94565
1147,Delta,38.731400,-108.070800,496.0,81416
1148,Brown,44.448610,-88.072040,55029.0,54115
1149,Kern,35.032045,-117.701247,10850.0,93516
1150,Crawford,42.021667,-95.363333,7853.0,51442
1151,Bernalillo,35.026000,-106.644000,55039.0,87105
1152,Denton,33.068473,-96.963806,794.0,75067
1153,Denton,,,796.0,76227
1154,Denton,33.197500,-97.106100,4266.0,76205
1155,Neuces,27.811083,-97.595813,50475.0,78460
1156,Douglas,39.432600,-105.126300,10081.0,80125
1157,Summit,39.620800,-106.066200,10421.0,80435
1158,Grand,40.035000,-106.205300,10422.0,80468
1159,Park,39.461600,-105.677000,10423.0,80448
1160,Jefferson,,,10424.0,80403
1161,Jefferson,39.641900,-104.913800,54142.0,80237
1162,Kent,39.279179,-75.623928,7962.0,19977
1163,Polk,41.600800,-93.608900,50932.0,50317
1164,Chatham,,,50927.0,31405
1165,Riverside,33.934725,-116.640548,10162.0,92262
1166,Thayer,40.140800,-97.723900,2234.0,68340
1167,Wayne,42.303900,-83.090300,1822.0,48209
1168,Wayne,,,1724.0,48200
1169,Livingston,,,1725.0,48800
1170,Wayne,,,1726.0,48200
1171,Wayne,42.175800,-83.533600,1727.0,48111
1172,Wayne,,,1728.0,48217
1173,Monroe,41.963100,-83.258100,1729.0,48166
1174,Oakland,,,1730.0,48100
1175,Huron,43.851900,-82.643600,1731.0,48441
1176,St Clair,,,1732.0,48000
1177,Monroe,,,1733.0,48200
1178,Macomb,,,1734.0,48100
1179,Huron,,,1735.0,48800
1180,Oakland,,,1737.0,48100
1181,Tuscola,42.710800,-83.456100,1739.0,48744
1182,Wayne,,,1740.0,48200
1183,Wayne,,,1741.0,48200
1184,St Clair,42.764200,-82.471900,1743.0,48054
1185,Washtenaw,,,1744.0,48200
1186,Wayne,42.121700,-83.180800,1745.0,48183
1187,Tuscola,,,1746.0,48058
1188,St Clair,42.775600,-82.495000,6034.0,48054
1189,St Clair,43.105600,-82.696400,6035.0,48006
1190,Becker,46.817500,-95.843333,1970.0,56501
1191,Lenoir,,,55001.0,28502
1192,Tooele,,,55858.0,84029
1193,Franklin,44.8061,-70.2186,55034.0,4983
1194,Alameda,37.758100,-121.525300,10815.0,95391
1195,Denver,39.458800,-105.065700,10070.0,80125
1196,Kern,35.050600,-118.171400,54687.0,93501
1197,Dinwiddie,37.193584,-77.467185,54766.0,23803
1198,Douglas,42.848900,-123.177800,50938.0,97410
1199,San Joaquim,,,10257.0,95201
1200,Fremont,42.847500,-108.313600,55278.0,82501
1201,Lee,,,54516.0,61021
1202,New London,41.3107,-72.1677,566.0,6385
1203,Grafton,,,10526.0,3785
1204,Niagara,,,54722.0,14094
1205,Armstrong,40.638021,-79.351725,55347.0,15774
1206,Wood,41.477240,-83.459830,55348.0,43443
1207,Muskingham,,,55350.0,43821
1208,Will,41.438800,-88.123600,55199.0,60421
1209,Little River,,,54104.0,71854
1210,Christian,39.590556,-89.496389,876.0,62540
1211,Baltimore,,,54795.0,21230
1212,Dreckerridge,37.766667,-86.543888,55227.0,40143
1213,Darke,40.075783,-84.615136,55228.0,45331
1214,Wells,40.620600,-85.305700,55229.0,46781
1215,Pickaway,39.713900,-83.177800,55247.0,43143
1216,Montgomery,39.727679,-84.209489,55248.0,45439
1217,Allen,40.702778,-83.899166,55384.0,45850
1218,Hanover,37.818224,-77.144780,52019.0,23005
1219,Hartford,,,54266.0,6103
1220,Douglas,47.946900,-119.865300,3886.0,98846
1221,Kent,39.176222,-75.546628,599.0,19904
1222,Kent,39.145036,-75.548172,7318.0,19904
1223,Tuscarawas,,,2914.0,44600
1224,Brazoria,28.991289,-95.407481,52120.0,77541
1225,Kern,35.500500,-119.046000,50493.0,93308
1226,Cass,,,1823.0,49047
1227,Iberville,30.318611,-91.2325,52005.0,70764
1228,Iberville,30.318600,-91.232500,52006.0,70764
1229,St Charles Parish,,,50152.0,70057
1230,Walton,33.837699,-83.699577,55244.0,30656
1231,Baker,,,55850.0,31770
1232,Butte,44.027444,-112.719439,54394.0,83244
1233,Maricopa,33.341700,-112.889700,55282.0,85322
1234,Fayette,,,55516.0,15458
1235,Washoe,,,55378.0,89442
1236,Knox,,,55483.0,47597
1237,Metcalfe,,,55398.0,42166
1238,Knox,,,55784.0,47597
1239,Gaston,35.189700,-81.012200,2718.0,28012
1240,Burke,35.742800,-81.837200,2719.0,28655
1241,Rowan,,,2720.0,28159
1242,Cleveland,35.220000,-81.759400,2721.0,28024
1243,Lincoln,35.434600,-80.958800,2722.0,28164
1244,Rockingham,36.486200,-79.720800,2723.0,27288
1245,Iredell,,,2726.0,28677
1246,Catawba,35.597500,-80.965800,2727.0,28682
1247,Gaston,35.333900,-80.986700,2728.0,28120
1248,Catawba,35.821400,-81.192200,2729.0,28613
1249,Caldwell,35.774234,-81.437773,2730.0,28667
1250,Gaston,35.360000,-80.974200,2732.0,28120
1251,Henderson,35.245006,-82.389371,2736.0,28731
1252,Greenwood,34.169200,-81.902500,3254.0,29037
1253,Lancaster,34.541400,-80.875600,3255.0,29055
1254,Chester,34.558300,-80.891400,3256.0,29055
1255,Chester,34.600000,-80.892800,3257.0,29055
1256,Cherokee,35.138100,-81.597500,3258.0,29702
1257,Chester,34.559200,-80.891700,3259.0,29055
1258,Pickens,34.959400,-82.914700,3262.0,29676
1259,Anderson,34.602200,-82.435000,3264.0,29697
1260,Oconee,,,3265.0,29679
1261,Fairfield,34.540000,-80.877800,3266.0,29055
1262,Kershaw,34.335500,-80.702100,3270.0,29130
1263,York,,,3271.0,29715
1264,Cherokee,35.031400,-81.493600,3272.0,29702
1265,York,35.051400,-81.069400,6036.0,29745
1266,Mecklenburg,35.433100,-80.948600,6038.0,28078
1267,Pickens,,,6517.0,29676
1268,Oconee,35.007500,-82.997500,7125.0,29676
1269,Lincoln,35.431700,-81.034700,7277.0,28164
1270,Cherokee,35.159700,-81.430600,7981.0,29702
1271,Stokes,36.281100,-80.060300,8042.0,27052
1272,Vigo,,,55424.0,47885
1273,Bollinger,,,55235.0,63764
1274,Lawrence,38.573100,-82.783300,55736.0,45638
1275,Lincoln,,,55371.0,71270
1276,Trimble,,,55746.0,40045
1277,Stephens,,,55751.0,73534
1278,Lee,41.828700,-89.405400,55236.0,61021
1279,Burke,,,55750.0,70112
1280,Wythe,,,55825.0,24360
1281,De Soto,,,55219.0,38671
1282,Washington,39.580000,-81.656400,55397.0,45715
1283,Homoshitto,,,55669.0,39647
1284,Dallas,,,55446.0,95185
1285,Jack,,,55230.0,76458
1286,Andrews,,,54948.0,79714
1287,Cook,,,54798.0,60107
1288,Leaveworth,,,55660.0,66043
1289,Camden,,,54428.0,31558
1290,St Loucie,,,55468.0,34981
1291,Frederick,,,55806.0,21703
1292,Curry,,,55681.0,88101
1293,Sullivan,,,54870.0,3284
1294,Du Page,,,54987.0,60517
1295,Will,41.429444,-87.618700,55253.0,60417
1296,Union,34.540833,-88.939722,55080.0,38652
1297,Cameron,29.761400,-93.608600,54531.0,70631
1298,Suffolk,40.786100,-73.293100,55786.0,11717
1299,Brazoria,28.980200,-95.342000,54676.0,77547
1300,Vinton,39.083900,-82.332800,55401.0,45695
1301,Charles City,,,55666.0,23030
1302,Murray,34.709400,-84.917500,55382.0,30721
1303,Orange,41.571247,-73.974981,2480.0,12550
1304,Orange,41.573783,-73.966269,8006.0,12550
1305,Randolph,38.205000,-89.854400,889.0,62217
1306,Mason,40.279700,-90.080000,891.0,62644
1307,Putnam,41.302800,-89.315000,892.0,61327
1308,La Salle,41.289700,-89.072500,894.0,61348
1309,Madison,38.731400,-90.046100,895.0,62040
1310,Vermillion,,,897.0,61858
1311,Madison,38.863900,-90.134700,898.0,62002
1312,Vermillion,,,7760.0,61833
1313,Will,41.416700,-88.183300,50627.0,60410
1314,Grant,40.471389,-85.501666,55385.0,46938
1315,St Clair,42.772500,-82.495300,55718.0,48054
1316,Cedar,41.599760,-90.911950,6220.0,52747
1317,Union,40.6781,-74.2744,10805.0,7033
1318,San Bernardino,34.041400,-117.360300,55951.0,92324
1319,Ventura,34.195800,-119.166400,10776.0,93030
1320,Pitt,35.665961,-77.357440,54887.0,27835
1321,Kanawha,38.242500,-81.554166,10788.0,25015
1322,Orange,30.055200,-93.757900,10789.0,77631
1323,Victoria,,,10790.0,77902
1324,Lenoir,,,10792.0,28502
1325,Sussex,38.631100,-75.626100,10793.0,19973
1326,Kershaw,,,10795.0,29020
1327,Augusta,38.058600,-78.891100,10796.0,22980
1328,Davison,36.275600,-86.664400,10797.0,37138
1329,Muscogee,,,54470.0,31994
1330,Alameda County,,,55848.0,85376
1331,Delaware,42.494200,-91.272500,7865.0,52041
1332,Hidalgo,,,55831.0,78503
1333,Calaveras,38.256900,-120.850700,376.0,95252
1334,San Joaquin,38.226800,-121.024500,537.0,95227
1335,New Conon,,,54758.0,6351
1336,Clark,,,54.0,40400
1337,Pulaski,,,1384.0,42500
1338,Clark,,,1385.0,40300
1339,Mason,,,6041.0,41100
1340,Laurel,,,6171.0,0
1341,Clark,,,7741.0,40400
1342,Washington,33.118900,-82.860800,55672.0,31094
1343,Sullivan,36.521900,-82.543100,50481.0,37662
1344,Penbscot,,,54587.0,4457
1345,Essex,42.521747,-70.938657,50955.0,1960
1346,Monroe,43.198900,-77.631900,10025.0,14652
1347,Talbot,38.778600,-76.076900,1580.0,21601
1348,Talbot,38.795000,-76.070000,4257.0,21601
1349,Schoolcraft,45.955014,-86.256291,1750.0,49854
1350,Chippewa,46.516200,-84.372900,1751.0,49783
1351,Cambria,40.455000,-78.747200,10603.0,15931
1352,Wayne,42.271100,-83.523100,50077.0,48111
1353,El Dorado,,,55775.0,95667
1354,CLark,,,55077.0,89005
1355,El Paso,31.756900,-106.375000,9.0,79915
1356,Dona Ana,31.804700,-106.547200,2444.0,88063
1357,El Paso,31.983587,-106.431777,3456.0,79934
1358,nan,,,7732.0,10708
1359,Hudspath,,,55578.0,79839
1360,San Juan,31.731700,-107.960800,54221.0,87413
1361,Waukesha,,,55670.0,53150
1362,Rio Blanco,,,54671.0,81648
1363,Wichita,,,3571.0,76360
1364,Massac,37.209400,-88.858889,887.0,62953
1365,Idaho,45.217784,-116.315770,50891.0,83654
1366,Shasta,40.846806,-121.956446,55009.0,96065
1367,Ellis,32.320000,-96.675000,55223.0,75119
1368,Sherburne,45.315800,-93.578100,1971.0,55330
1369,Dutches,,,54573.0,12590
1370,Tippencanoe,,,54835.0,47909
1371,Kern,,,52161.0,93581
1372,Riverside,,,55396.0,92230
1373,Imperial,33.177700,-115.603300,10634.0,92233
1374,Barton,38.354514,-98.583436,1274.0,67526
1375,Lewis,53.583800,-75.339600,10817.0,13433
1376,Juneau,43.748600,-90.276400,4113.0,53929
1377,Dixon,42.276400,-96.728900,2235.0,68733
1378,Cherokee,,,1239.0,66937
1379,Jasper,,,2076.0,66937
1380,Jasper,37.138500,-94.104100,6223.0,64862
1381,Taney,,,6280.0,66937
1382,Jasper,37.065900,-94.614000,7296.0,64804
1383,Bradford,,,55452.0,18854
1384,Pointe Coupee Parish,,,55722.0,70760
1385,Iberville Parish,,,55723.0,70764
1386,Caddo Parish,,,55724.0,71107
1387,Power,,,55940.0,83211
1388,Payette,,,55941.0,83661
1389,McKinley,,,55942.0,87301
1390,Luna,,,55943.0,88030
1391,Harris,,,55725.0,77046
1392,Thomas,,,55827.0,31792
1393,Johnson,,,55828.0,41219
1394,Erie,,,54571.0,16428
1395,San Diego,,,10026.0,92009
1396,Logan,40.961900,-103.115300,55741.0,80747
1397,Murray,,,55980.0,27101
1398,Murray,,,55981.0,27101
1399,St Lawrence,44.660338,-74.860265,2540.0,13672
1400,Herkimer,43.019113,-74.741349,2543.0,13365
1401,Lewis,43.927500,-75.333100,2544.0,13327
1402,Oswego,43.531700,-75.953100,2545.0,13302
1403,Jefferson,44.000122,-75.813151,2546.0,13612
1404,St Lawrence,44.506474,-74.753442,2547.0,13672
1405,St Lawrence,44.211407,-75.059441,2548.0,13639
1406,Franklin,44.753300,-74.216900,2550.0,12953
1407,St Lawrence,44.583900,-74.958300,2551.0,13625
1408,Jefferson,44.038100,-75.680600,2552.0,13628
1409,Lewis,43.909714,-75.200831,2555.0,13327
1410,St Lawrence,44.638365,-75.490520,2556.0,13670
1411,Lewis,43.922831,-75.277923,2557.0,13327
1412,Lewis,43.927536,-75.288322,2559.0,13327
1413,Fulton,43.009200,-74.537200,2560.0,13339
1414,St Lawrence,44.798900,-74.985600,2561.0,13667
1415,St Lawrence,44.527491,-74.849177,2562.0,13625
1416,St Lawrence,44.221700,-75.074200,2563.0,13639
1417,Franklin,44.437200,-73.972500,2564.0,12913
1418,Oswego,43.324110,-76.418984,2566.0,13069
1419,Orleans,43.235800,-78.390600,2568.0,14103
1420,Oswego,43.323441,-76.420841,2569.0,13069
1421,St Lawrence,44.619200,-74.973300,2571.0,13647
1422,Jefferson,44.021700,-75.651100,2572.0,13619
1423,St Lawrence,44.617200,-75.404200,2573.0,13654
1424,Lewis,43.924700,-75.373100,2575.0,13327
1425,St Lawrence,44.530600,-74.933100,2576.0,13625
1426,Niagara,43.170948,-78.691551,2578.0,14094
1427,Fulton,43.061017,-74.764347,2579.0,13329
1428,Rensselaer,42.920374,-73.508886,2580.0,12094
1429,Jefferson,44.011700,-75.796700,2581.0,13612
1430,Oswego,43.524103,-75.970318,2582.0,13302
1431,Franklin,44.877326,-74.306288,2583.0,12953
1432,Oswego,43.400300,-76.473900,2586.0,13126
1433,Herkimer,43.871900,-75.136400,2588.0,13327
1434,St Lawrence,44.805300,-74.997500,2590.0,13667
1435,St Lawrence,44.743900,-75.004200,2591.0,13668
1436,Oswego,43.316100,-76.415300,2595.0,13069
1437,Oswego,43.315600,-76.417200,2596.0,13069
1438,St Lawrence,44.630000,-74.825800,2597.0,13672
1439,St Lawrence,44.233419,-74.566217,2598.0,12973
1440,Oneida,43.291861,-75.147734,2599.0,13435
1441,St Lawrence,44.517800,-74.822800,2600.0,13672
1442,St Lawrence,44.835000,-74.980300,2601.0,13667
1443,St Lawrence,44.267800,-75.196100,2604.0,13639
1444,Albany,42.784980,-73.707983,2605.0,12047
1445,Rensselaer,42.899200,-73.598900,2606.0,12154
1446,Saratoga,43.096823,-73.582107,2607.0,12871
1447,Jefferson,43.977500,-75.894200,2608.0,13601
1448,Saratoga,43.279700,-73.709400,2609.0,12804
1449,Lewis,43.920600,-75.243300,2610.0,13327
1450,St Lawrence,44.513300,-74.883100,2611.0,13625
1451,Saratoga,43.233900,-73.755600,2612.0,12801
1452,St Lawrence,44.455300,-74.761400,2613.0,13625
1453,Saratoga,43.297800,-73.885300,2614.0,12846
1454,St Lawrence,44.642181,-74.976473,2616.0,13676
1455,Lewis,43.927002,-75.321877,2617.0,13327
1456,Oneida,43.275800,-75.156700,2619.0,13304
1457,Oswego,43.448600,-76.505600,2621.0,13126
1458,Orleans,43.327200,-78.239400,2623.0,14571
1459,St Lawrence,44.766100,-74.999700,2624.0,13667
1460,Saratoga,43.318906,-73.920785,6527.0,12846
1461,St Lawrence,44.308300,-75.308300,7583.0,13635
1462,Saratoga,43.289874,-73.665834,10530.0,12803
1463,Jefferson,43.976700,-75.907200,10531.0,13601
1464,Sanpete,,,925.0,84624
1465,De Kalb,,,54825.0,30346
1466,oswego,,,6110.0,13093
1467,Lea,,,55712.0,88260
1468,Windham,,,3751.0,53540
1469,Neosho,37.566810,-95.237499,1276.0,66733
1470,Neosho,37.333300,-95.516700,7766.0,66733
1471,Erie,42.143919,-80.069581,50920.0,16507
1472,Delta,45.804400,-87.089100,10208.0,49829
1473,San Diego,,,457.0,92025
1474,Martin,,,55623.0,40507
1475,Pike,,,55657.0,47567
1476,Marshall,,,55658.0,40507
1477,Sulliva,,,55659.0,47882
1478,Franklin,,,54228.0,1344
1479,Emmet,43.402800,-94.843300,1137.0,51334
1480,Umatilla,45.879200,-118.637200,55125.0,97835
1481,Linn,44.285977,-122.041352,3067.0,97413
1482,Lane,44.101100,-122.689200,3068.0,97477
1483,Lane,44.069636,-122.835046,3071.0,97477
1484,Clackamas,45.081111,-121.886611,7508.0,97023
1485,Lane,,,7509.0,0
1486,Westchester,41.270556,-73.952700,2497.0,10511
1487,West Chester,41.270600,-73.952600,8907.0,10511
1488,Westchester,,,55859.0,10601
1489,Hidalgo,,,55705.0,88045
1490,Chester,39.830100,-75.383700,3157.0,19013
1491,Montgomery,,,3159.0,19460
1492,Philadelphia,39.968021,-75.125203,3160.0,19125
1493,Delaware,,,3161.0,19125
1494,Bucks,40.176486,-74.789976,3162.0,19067
1495,Montgomery,40.235200,-75.619300,3163.0,19464
1496,York,39.758936,-76.268742,3166.0,17314
1497,Philadelphia,39.984469,-75.075247,3168.0,19137
1498,Philadelphia,39.941900,-75.188300,3169.0,19146
1499,Philadelphia,39.914400,-75.135000,3170.0,19148
1500,Montgomery,40.224303,-75.587440,6105.0,19464
1501,Bucks,40.153128,-74.769146,7690.0,19067
1502,Bucks,,,7704.0,19030
1503,Bucks,40.080000,-74.891700,8012.0,19020
1504,Penobscot,44.7383,-68.8258,50051.0,4474
1505,Snohomish,,,55487.0,98201
1506,Harrison,,,55664.0,75672
1507,Riverside,33.944700,-116.622200,10027.0,92240
1508,Rowan,,,55530.0,27054
1509,San Bernadino,,,10444.0,92347
1510,Hampden,,,50273.0,1001
1511,Harris County,,,55365.0,77571
1512,Grundy,41.390000,-88.270000,869.0,60450
1513,Rock Island,41.726111,-90.310278,880.0,61242
1514,Will,41.243500,-88.228600,6022.0,60407
1515,Ogle,42.074200,-89.281900,6023.0,61010
1516,LaSalle,41.245498,-88.669066,6026.0,61341
1517,East Baton Rouge,30.489722,-91.187222,10690.0,70821
1518,East Baton Rouge,,,55150.0,70821
1519,Jefferson,,,50625.0,77704
1520,Jefferson,,,55945.0,77704
1521,Jefferson,,,55946.0,77705
1522,Jefferson,,,55947.0,77704
1523,Harris,29.753517,-94.997277,10436.0,77520
1524,Harris,29.759124,-95.009648,10692.0,77522
1525,Bucks,,,55298.0,19032
1526,Humboldt,,,10052.0,95502
1527,Jefferson,40.133872,-97.184286,2236.0,68352
1528,Renville,44.527800,-94.721700,1972.0,55332
1529,Wayne,38.378300,-88.359400,940.0,62837
1530,Martin,43.657900,-94.464700,1973.0,56031
1531,Major,36.265600,-98.479400,2978.0,73737
1532,Polk,27.845000,-81.909722,10205.0,33830
1533,Fremont,,,4204.0,83420
1534,Teton,,,6359.0,83420
1535,Richardson,40.055000,-95.608300,2237.0,68355
1536,De Witt,40.246110,-88.638761,941.0,61842
1537,hood River,,,10323.0,97031
1538,Hood River,45.667640,-121.548455,10324.0,97031
1539,San Juan,36.806100,-107.613100,584.0,87401
1540,San Juan,36.725138,-108.192020,2465.0,87401
1541,San Juan,36.716628,-108.215282,55977.0,87401
1542,Hartford,,,559.0,6095
1543,Howard,39.140600,-92.680000,2125.0,65248
1544,Cumberland,,,1016.0,28301
1545,Grant,42.982800,-90.655800,4114.0,53809
1546,Franklin,42.260844,-111.665589,10325.0,83263
1547,Swift,45.322401,-95.629506,55867.0,56215
1548,Hunterdon,,,10851.0,8804
1549,Middlesex,,,54992.0,1803
1550,Warren,43.308400,-73.637600,10511.0,12801
1551,Price,45.868300,-90.584400,55684.0,54552
1552,Price,45.913526,-90.447460,55685.0,54552
1553,Upton,,,55581.0,78701
1554,Iowa,,,55978.0,nan
1555,Linn,44.396815,-122.350246,52187.0,97329
1556,Suffolk,,,6575.0,6390
1557,Concordia,31.088011,-91.618853,54678.0,71373
1558,Esmeralda,,,10657.0,89010
1559,Maury,,,55745.0,38410
1560,Los Angeles,33.791667,-118.234722,50530.0,90748
1561,Monroe,24.710833,-81.092700,696.0,33050
1562,Brevard,,,609.0,32922
1563,Miami-Dade,25.632100,-80.298900,610.0,33158
1564,Lee,26.696700,-81.783100,612.0,33902
1565,Broward,26.068600,-80.198400,613.0,33314
1566,Broward,26.085600,-80.125300,617.0,33316
1567,Palm Beach,26.765300,-80.052500,619.0,33404
1568,Volusia,28.841900,-81.325600,620.0,32713
1569,Miami-Dade,25.435600,-80.330800,621.0,33035
1570,Manatee,27.605800,-82.345600,6042.0,34219
1571,Martin,27.053600,-80.562800,6043.0,34956
1572,St Lucie,27.348611,-80.246389,6045.0,33497
1573,Putnam,29.628338,-81.585084,6246.0,32031
1574,nan,,,7744.0,0
1575,Taylor,,,7893.0,nan
1576,Highlands,,,624.0,33825
1577,Pinellas,27.758056,-82.635278,627.0,33701
1578,Citrus,28.965600,-82.697700,628.0,34428
1579,Volusia,28.869577,-81.273957,629.0,32725
1580,Pinellas,28.003262,-82.661507,630.0,34677
1581,Pinellas,27.859535,-82.601759,634.0,33702
1582,Orange,,,637.0,32817
1583,Suwannee,30.376389,-83.180556,638.0,32060
1584,Volusia,28.903863,-81.332329,6046.0,32713
1585,Polk,27.788215,-81.869983,7302.0,33830
1586,Alachua,29.640278,-82.348611,7345.0,32611
1587,Polk,,,7699.0,33830
1588,Pasco,,,8048.0,34688
1589,Osceola,28.262778,-81.548611,8049.0,33848
1590,Floyd,,,3573.0,79235
1591,Lawrence,,,55883.0,41129
1592,Carbon,,,55610.0,82083
1593,Saratoga,43.160868,-73.584076,50514.0,12871
1594,Fond du Lac,,,55498.0,54935
1595,Carbon,,,55607.0,82083
1596,Hidalogo,,,55098.0,78572
1597,Wayne,42.167000,-83.531800,7972.0,48111
1598,Clearwater,,,54674.0,83544
1599,Santa Barbara,34.464819,-120.044365,50270.0,93117
1600,Escambia,31.070589,-87.362778,50724.0,36502
1601,Iberia,,,50726.0,70569
1602,St Mary,29.700000,-91.550000,50728.0,70522
1603,Mobile,30.432030,-88.182410,54550.0,36582
1604,Jefferson,29.234167,-89.989722,54927.0,70358
1605,Wood,32.607778,-95.206388,54962.0,75765
1606,Calhoun,28.691700,-96.541700,10554.0,77978
1607,Lewis,43.610664,-75.341325,10196.0,13368
1608,Jefferson,44.158611,-75.708778,10197.0,13673
1609,Lewis,44.151944,-75.321725,10237.0,13648
1610,Herkimer,43.090635,-74.766961,10238.0,13329
1611,Merrimack,43.446107,-71.644646,10109.0,3235
1612,East Baton Rouge,30.499200,-91.187200,54518.0,70805
1613,Niagara,,,55615.0,10314
1614,Richmond,,,55616.0,10314
1615,Brown,,,10360.0,54307
1616,Winnebago,43.263235,-93.635383,1138.0,50436
1617,Muskogee,,,10362.0,74402
1618,Walla Walla,,,55560.0,99363
1619,Walla Walla,,,55989.0,99363
1620,St Lucie,27.448611,-80.338611,658.0,34950
1621,Peach,,,7412.0,31030
1622,Effingham,32.331274,-81.201496,10361.0,31326
1623,St Lucie,,,55652.0,34950
1624,El paso,,,55453.0,81008
1625,Rockingham,,,10108.0,3842
1626,Jefferson,43.980806,-75.624677,54548.0,13619
1627,Contra Costa,38.024400,-122.058900,10342.0,94553
1628,Charleston,,,10344.0,29405
1629,Camden,39.9092,-75.1169,10435.0,8104
1630,Washington,43.305600,-73.591447,10503.0,12839
1631,Warren,32.388271,-90.908344,54918.0,39180
1632,Kendall,41.712800,-88.352200,50904.0,60543
1633,Franklin,,,55489.0,62890
1634,Delaware County,39.807038,-75.421606,55801.0,19061
1635,Chowan,36.106700,-76.635600,7429.0,27932
1636,Southampton,36.678600,-76.939200,55953.0,23851
1637,Southampton,36.678600,-76.939200,55954.0,23851
1638,Franklin,40.095300,-98.954400,2238.0,68939
1639,Franklin,,,55527.0,62812
1640,Olmsted,44.020576,-92.465599,54224.0,55902
1641,Price,45.935600,-90.447200,50620.0,54552
1642,Wilson,,,1277.0,66736
1643,Freestone,31.890700,-96.113100,55226.0,75840
1644,St Clair,38.425556,-89.914444,943.0,62243
1645,Pierce,47.086172,-122.365674,55818.0,98446
1646,Charles,,,55728.0,20602
1647,Nassau,40.656100,-73.592200,2678.0,11520
1648,Nassau,40.644700,-73.568300,2679.0,11520
1649,Dodge,41.428100,-96.462300,2240.0,68025
1650,Berrien,41.820300,-86.259200,10656.0,49120
1651,Fresno,36.617022,-120.099846,10156.0,93660
1652,San Joaquin,37.943633,-121.330433,54238.0,95203
1653,Weld,,,55191.0,80621
1654,Aroostook,46.77285,-67.84849,7513.0,4742
1655,Ada,43.561001,-116.121269,10735.0,83712
1656,Tarramt,,,54520.0,76012
1657,Providence,41.8017,-71.5186,55107.0,2919
1658,Cherokee,35.072700,-81.613000,55043.0,29340
1659,Oswego,,,54138.0,13069
1660,Rensselaer,42.625325,-73.749955,54034.0,12144
1661,Callaway,38.868095,-91.947780,2126.0,65251
1662,Kaufman,32.756300,-96.491600,55480.0,75126
1663,Rockingham,42.899167,-70.848889,6115.0,3874
1664,Somerset,39.850000,-79.077800,55370.0,15542
1665,Cook,42.035800,-87.699200,54788.0,60204
1666,Fulton,33.761400,-84.387500,54906.0,30303
1667,Chatham,,,52182.0,31498
1668,Alachua,29.759200,-82.387800,663.0,32606
1669,Alachua,29.646100,-82.320800,664.0,32601
1670,Alachua,29.513056,-82.548055,7963.0,32618
1671,NOT IN FILE,,,7437.0,99741
1672,Daviess,39.914400,-93.961900,2127.0,64640
1673,Daviess,39.928333,-93.937777,8017.0,64640
1674,Johnson,38.812350,-91.898529,7281.0,66030
1675,Garfield,37.985800,-111.438300,3699.0,84716
1676,Dallas,32.912500,-96.623100,3574.0,75040
1677,Collin,,,3576.0,75018
1678,Anderson,38.285800,-95.259400,1278.0,66032
1679,McKinley,35.488289,-108.426497,50997.0,87301
1680,Ogle,41.997222,-89.317500,55591.0,61020
1681,Du Page,41.952742,-88.143737,55592.0,60103
1682,Rock Island,41.374444,-90.522222,55593.0,61264
1683,Du Page,42.079700,-88.138600,55594.0,60010
1684,Upshur,,,55194.0,75644
1685,Orange,,,10047.0,10924
1686,San Diego,,,10386.0,92069
1687,San Diego,32.857709,-117.028847,10387.0,92071
1688,Kauai,21.917800,-159.629400,50333.0,96747
1689,Contra Costa,,,10886.0,94509
1690,Washington,,,54427.0,70429
1691,Essex,42.45,-70.9739,10029.0,1910
1692,Douglas,,,55038.0,68114
1693,Du Page,41.879400,-88.220000,54924.0,60185
1694,Sweetwater,41.593300,-109.754200,54318.0,82935
1695,Mercer,41.167500,-80.106400,10058.0,16127
1696,Strafford,43.2597,-70.8597,10059.0,3878
1697,San Diego,32.886111,-117.117500,10720.0,92123
1698,Utah,,,10778.0,84058
1699,Erie,42.870968,-78.875549,54564.0,14203
1700,Henry,41.451494,-90.148547,944.0,61254
1701,Erie,,,50358.0,16531
1702,Anderson,,,55476.0,29624
1703,Washington,36.186111,-94.284166,55869.0,72762
1704,Grady,,,55868.0,73018
1705,Putnam,29.680700,-81.680900,10611.0,32177
1706,East Baton Rouge,30.654700,-91.280000,10612.0,70791
1707,Washington,45.1554,-67.4012,10613.0,4694
1708,Wood,,,50395.0,54469
1709,Wood,44.336400,-89.867200,54103.0,54469
1710,Penobscot,44.918063,-68.63554,10700.0,4468
1711,Choctaw,32.226800,-88.025200,10699.0,36916
1712,Ashley,33.142100,-91.975000,10606.0,71635
1713,Burke,33.142700,-81.762500,649.0,30830
1714,Bibb,32.926944,-83.699444,699.0,31208
1715,Cobb,33.817500,-84.480278,700.0,30080
1716,Oconee,33.839475,-83.309716,701.0,31024
1717,Harris,,,702.0,36874
1718,Bartow,,,703.0,30178
1719,Rabun,34.793900,-83.540600,704.0,30523
1720,Dougherty,,,706.0,31075
1721,Harris,,,707.0,36874
1722,Floyd,34.252800,-85.345600,708.0,30129
1723,Putnam,33.195000,-83.298300,709.0,31061
1724,Cobb,33.823900,-84.475800,710.0,30080
1725,Harris,,,711.0,36874
1726,Jasper,33.320773,-83.841922,712.0,31024
1727,Glynn,,,715.0,31520
1728,Fulton,,,717.0,30338
1729,Rabun,34.755269,-83.501073,718.0,30523
1730,Harris,,,719.0,36874
1731,Muscogee,,,720.0,36874
1732,Baldwin,33.140300,-83.202800,722.0,31024
1733,Habersham,34.731332,-83.375475,723.0,30523
1734,Rabun,34.750400,-83.406300,724.0,30523
1735,Habersham,34.713300,-83.351900,725.0,30523
1736,Dougherty,31.444728,-84.134696,727.0,31705
1737,Coweta,33.462200,-84.898600,728.0,30264
1738,Stephens,34.681477,-83.342642,729.0,30523
1739,Appling,31.934200,-82.344700,6051.0,31513
1740,Heard,33.413420,-85.032329,6052.0,30170
1741,Hancock,33.349800,-83.157400,6087.0,31024
1742,Monroe,33.060600,-83.807500,6257.0,31046
1743,Burke,33.137711,-81.748294,6258.0,30830
1744,Houston,32.579200,-83.582200,7348.0,31098
1745,nan,,,7711.0,0
1746,nan,,,7712.0,0
1747,nan,,,7713.0,0
1748,nan,,,7714.0,0
1749,Lonoke,,,55629.0,72046
1750,Sonoma,38.777000,-122.745000,286.0,95461
1751,Lake,38.790300,-122.755900,510.0,95461
1752,Lake,38.788100,-122.721900,10199.0,95461
1753,Lake,38.762968,-122.692915,10469.0,95461
1754,Lake,38.787900,-122.743400,50066.0,95461
1755,Sonoma,38.833900,-122.881000,52158.0,95425
1756,Lawrence,31.628500,-90.080900,10610.0,39654
1757,Bedford,37.534000,-79.357000,50479.0,24526
1758,Calcasieu,30.182600,-93.323400,52175.0,70663
1759,Glynn,31.175406,-81.521637,10605.0,31521
1760,Early,31.166000,-85.095100,54101.0,31732
1761,San Joaquin,,,10031.0,95242
1762,Wayne,,,10159.0,48174
1763,Perry,31.243400,-89.045600,10233.0,39462
1764,Mendocino,,,10607.0,95437
1765,Maricopa,32.985977,-112.811009,55507.0,85337
1766,Iberville,,,55051.0,70765
1767,Schenectady,,,55475.0,12302
1768,Kern,35.050000,-118.257200,54647.0,93501
1769,Schuykill,,,10113.0,17931
1770,Suffolk,42.3436,-71.0559,54225.0,2127
1771,Macomb,42.467677,-83.039212,10032.0,48091
1772,Oakland,42.660324,-83.298308,10111.0,48340
1773,Crawford,37.507709,-94.839318,1279.0,66743
1774,Elmore,42.953989,-115.293739,54578.0,83623
1775,Siskiyou,,,55845.0,41
1776,Siskiyou,,,55846.0,94588
1777,McLeod,44.770900,-94.158200,1975.0,55336
1778,Los Angeles,34.155600,-118.278200,377.0,91201
1779,Garfield,,,54413.0,80014
1780,Suffolk,41.106030,-72.376155,55969.0,11944
1781,Fairbanks North Star,64.735600,-147.348100,6285.0,99705
1782,Fairbanks North Star,64.854171,-147.719351,6286.0,99701
1783,Denali Borough,63.854200,-148.950000,6288.0,99743
1784,Denali Borough,63.854167,-148.950000,7785.0,99743
1785,Fairbanks North Star,,,55982.0,99701
1786,Klickitat,45.811400,-120.833000,55482.0,98620
1787,Gonzales,29.497166,-97.455160,7394.0,78629
1788,Sherman,39.341622,-101.705188,1280.0,67735
1789,Jefferson,29.972800,-94.214200,54321.0,77705
1790,Summit,,,10114.0,44316
1791,Lousia,,,54844.0,22942
1792,Webster,42.274514,-94.270195,1141.0,50543
1793,Grundy,,,55707.0,60450
1794,Palo Alto,43.239700,-94.749800,1142.0,51342
1795,Walsh,48.410800,-97.415800,2811.0,58237
1796,Kalamazoo,42.306809,-85.578969,10698.0,49007
1797,Clinton,42.805000,-84.707500,10532.0,48837
1798,CLinton,,,54549.0,48906
1799,Ottawa,43.096900,-85.948900,54756.0,49404
1800,Genesee,42.917200,-83.728600,54757.0,48439
1801,Genesee,43.176700,-83.900000,54910.0,48457
1802,Ottawa,43.070600,-86.235000,1825.0,49417
1803,Ottawa,43.1006,-86.41,1826.0,49417
1804,Greene,42.029600,-94.369900,1143.0,50107
1805,Cook,47.750278,-90.357222,1976.0,55604
1806,Mayes,36.190278,-95.289400,165.0,74337
1807,Mayes,,,2980.0,75352
1808,Mayes,36.467500,-95.041389,2981.0,74350
1809,Mayes,36.264685,-95.103558,2982.0,74365
1810,Chippewa,44.811685,-95.534550,1977.0,56241
1811,Yellow Medicine,44.804700,-95.557000,7977.0,56241
1812,Cumberland,,,55108.0,4038
1813,Henderson,,,55275.0,42420
1814,Gray,37.883300,-100.640000,55734.0,67867
1815,Passaic,40.915319,-74.180986,52068.0,7501
1816,Philadelphia,39.942219,-75.188069,54785.0,19146
1817,Penobscot,45.647179,-68.704368,54134.0,4462
1818,Penobscot,45.657608,-68.709526,55829.0,4462
1819,Penobscot,45.6219,-68.5756,55830.0,4462
1820,Isanti,45.601000,-93.208100,2038.0,55008
1821,Sherburne,45.296797,-93.558447,2039.0,55330
1822,Wright,45.229073,-94.009673,2042.0,55358
1823,Mercer,47.286643,-101.331908,2824.0,58571
1824,McLean,47.377743,-101.157058,6030.0,58576
1825,Pine,45.805443,-92.971760,6741.0,55063
1826,Carver,44.905026,-93.820761,6824.0,55375
1827,Mower,,,7843.0,55973
1828,Martin,43.798439,-94.841451,7925.0,56176
1829,Tulsa,,,55146.0,28273
1830,Washington,,,3734.0,5602
1831,Chittenden,44.4906,-73.1703,3735.0,5446
1832,Chittenden,44.4821,-73.1164,3737.0,5452
1833,Washington,44.3606,-72.3356,3739.0,5658
1834,Washington,,,3740.0,5602
1835,Caledonia,44.4056,-72.1881,3743.0,5873
1836,Chittenden,,,6475.0,5401
1837,Addison,44.1664,-73.2575,6519.0,5491
1838,Washington,44.38126,-72.76769,6520.0,5676
1839,Washington,44.359381,-72.81673,7056.0,5676
1840,Bennington,,,7381.0,5201
1841,Middlesex,,,54522.0,8859
1842,Adair,41.303889,-94.460556,1144.0,50849
1843,Adair,41.316400,-94.455000,7856.0,50849
1844,Suffolk,41.101111,-72.371944,2681.0,11944
1845,Kiowa,,,1281.0,67054
1846,Hunt,33.170700,-96.126400,4195.0,75401
1847,Leflore,33.517315,-90.209661,2062.0,38930
1848,Leflore,33.516583,-90.183337,2063.0,38930
1849,Umatilla,,,55559.0,97835
1850,Piscatquis,,,54852.0,4442
1851,Greenville,,,55532.0,29680
1852,Hillsborough,43.0168,-71.5679,50384.0,3045
1853,Guadalupe,29.624400,-98.141900,55153.0,78124
1854,Kings,36.270072,-119.648055,55698.0,93230
1855,Kings,36.239700,-119.904400,55807.0,93245
1856,San Diego,,,10115.0,92042
1857,El Paso,,,54905.0,79922
1858,Grundy,42.363094,-92.772322,1145.0,50638
1859,Comal,29.870560,-98.194733,791.0,78155
1860,Guadalupe,29.593951,-98.040734,3581.0,78155
1861,Guadalupe,29.640187,-98.045934,3582.0,78155
1862,Gonzales,29.495193,-97.624948,3583.0,78155
1863,Gonzales,29.468100,-97.491900,3584.0,78155
1864,Guadalupe,29.537565,-97.932106,3585.0,78155
1865,Guadalupe,29.548136,-97.999587,3586.0,78155
1866,Escambia,30.566100,-87.224400,641.0,32514
1867,Jackson,30.669200,-84.886900,642.0,32460
1868,Bay,30.268600,-85.700300,643.0,32409
1869,Santa Rosa,30.592080,-87.135391,7715.0,32571
1870,Marengo,32.454100,-87.975900,54763.0,36732
1871,East Baton Rouge,,,1391.0,70805
1872,East Baton Rouge,,,1392.0,10805
1873,Calcasieu,30.284400,-93.291100,1393.0,70669
1874,Iberville,30.274300,-91.116400,1394.0,70776
1875,Montgomery,,,3457.0,77378
1876,Jefferson,,,3458.0,77704
1877,Orange,,,3459.0,77611
1878,West Feliciana,30.757000,-91.332700,6462.0,70775
1879,Newton,31.173484,-93.565877,6595.0,75932
1880,Calcasieu,,,7363.0,70669
1881,NOT IN FILE,66.520800,-145.306400,7174.0,99740
1882,Contra Costa,38.030597,-121.870217,10367.0,94565
1883,Contra Costa,38.016169,-121.860293,10368.0,94565
1884,Contra Costa,38.011659,-121.780776,10369.0,94509
1885,Contra Costa,38.010915,-121.756046,10370.0,94509
1886,Contra Costa,38.043520,-121.987499,10371.0,94565
1887,San Joaquin,37.710700,-121.490600,55933.0,95377
1888,Cheboygan,45.637537,-84.481387,50461.0,49721
1889,Umatilla,45.794046,-119.313323,55328.0,97838
1890,Norman,47.352500,-96.815000,8105.0,56548
1891,Hawaii,20.093900,-155.471100,55369.0,96727
1892,Butler,39.409800,-84.554300,2917.0,45011
1893,Scioto,,,4258.0,45627
1894,Butler,39.412800,-84.555800,7807.0,45011
1895,Autauga,32.418700,-86.471800,52140.0,36067
1896,Lake,,,55362.0,46320
1897,Venango,41.290800,-79.806100,55233.0,16374
1898,Kings,36.269895,-119.648489,10373.0,93230
1899,King,,,54861.0,98065
1900,Lamoille,,,6477.0,5680
1901,Hardee,27.636400,-81.963600,50949.0,33834
1902,Shelby,41.644542,-95.315283,1146.0,51537
1903,Hartford,,,52061.0,6103
1904,Harris,,,55143.0,77044
1905,Hampden,,,54981.0,1041
1906,Dauphin,40.244242,-76.853872,10118.0,17104
1907,Oceana,,,1827.0,49400
1908,Newton,,,55639.0,77614
1909,Hart,,,55689.0,30643
1910,Adams,,,60.0,68901
1911,Adams,,,2243.0,68901
1912,Adams,,,2244.0,68901
1913,Dakota,44.760249,-92.867743,54285.0,55033
1914,Haywood,,,55519.0,38069
1915,Maui,,,55862.0,96784
1916,Maui,,,55863.0,96784
1917,Maui,20.888600,-156.356900,55864.0,96784
1918,Hawaii,19.630600,-155.981700,768.0,96743
1919,Hawaii,19.705200,-155.062500,769.0,96721
1920,Hawaii,,,771.0,96721
1921,Hawaii,19.704100,-155.060700,772.0,96721
1922,Hawaii,19.720300,-155.118900,774.0,96721
1923,Hawaii,19.723900,-155.069000,6478.0,96721
1924,Hawaii,,,7130.0,96721
1925,Hawaii,20.023333,-155.746667,7769.0,96743
1926,Hawaii,19.731700,-156.028300,8083.0,96740
1927,Cerro Gordo,,,55816.0,50483
1928,Los Angeles,,,50541.0,90748
1929,Clay,,,1978.0,56549
1930,Sierra,39.565677,-120.581684,10253.0,96125
1931,Haywood,,,55729.0,38012
1932,Imperial,32.714600,-115.518000,54689.0,92249
1933,Klamath,42.501360,-120.989440,10737.0,97622
1934,Jerome,,,54306.0,83335
1935,Jerome,42.605100,-114.093000,54558.0,83335
1936,Wasatch,40.493631,-111.312506,159.0,84032
1937,Wasatch,40.500300,-111.404700,7111.0,84032
1938,Fillmore,,,55865.0,55965
1939,Henderson,,,1372.0,42419
1940,Sullivan,43.442871,-72.056,10838.0,3751
1941,Hendricks,39.760000,-86.514400,54731.0,46122
1942,San Diego,32.694700,-117.143600,52147.0,92113
1943,Pike,,,10207.0,63353
1944,Glynn,,,10120.0,31521
1945,Dickinson,38.672800,-96.941100,1283.0,67449
1946,Oswego,,,55366.0,13126
1947,Umatilla,45.804200,-119.370000,54761.0,97838
1948,Butte,39.869284,-121.631865,50350.0,95954
1949,St Louis,47.429400,-92.935000,1979.0,55746
1950,Hidalgo,26.341720,-98.175759,55545.0,78539
1951,Lafayette,39.073315,-93.714748,2131.0,64037
1952,Kern,35.509041,-119.030546,50495.0,93308
1953,Madison,38.733300,-89.687500,946.0,62249
1954,Morgan,33.816547,-83.504932,10121.0,30645
1955,Graham,39.358200,-99.841700,1285.0,67642
1956,Hillsdale,41.906100,-84.631900,1829.0,49242
1957,Hillsborough,27.954901,-82.340469,50858.0,33619
1958,USA,,,10401.0,96720
1959,Montmorency,45.068800,-83.893200,10346.0,49746
1960,San Bernardino,34.595300,-117.364700,55518.0,92394
1961,Hillsborough,43.11391,-71.894001,10036.0,3244
1962,Kankakee,41.160300,-87.854200,54790.0,60915
1963,Nassau,40.713900,-73.600300,51035.0,11549
1964,Somerset,40.624,-74.634,10122.0,8807
1965,Auglaize,40.488484,-84.318300,10739.0,45871
1966,Passaic,,,10123.0,7110
1967,Barton,38.527500,-98.775800,1286.0,67544
1968,Kane,40.000800,-88.298100,54523.0,60177
1969,Phelps,,,2246.0,68949
1970,Shelby,39.223144,-88.758406,55334.0,62414
1971,Ottawa,42.795600,-86.113300,1830.0,49423
1972,Ottawa,42.792645,-86.103583,6356.0,49423
1973,Allegan,42.755300,-86.085300,7268.0,49423
1974,St Lawrence,44.296453,-75.336142,10124.0,13642
1975,Washington,43.096677,-73.460172,10853.0,12834
1976,Prowers,38.055000,-102.200400,502.0,81047
1977,Queens,40.697280,-73.799783,10125.0,11433
1978,Jackson,39.473500,-95.731550,1287.0,66436
1979,Hampden,42.2,-72.61,9864.0,1040
1980,Hampden,42.2086,-72.6014,1603.0,1040
1981,Hampden,42.1919,-72.6097,1604.0,1040
1982,Hampden,42.2119,-72.6036,1605.0,1040
1983,Hampden,42.2806,-72.6055,1606.0,1040
1984,Hampden,42.200592,-72.594432,1607.0,1040
1985,Lyon,39.164129,-119.180068,55988.0,89447
1986,Trinity,40.370000,-123.434700,10128.0,95526
1987,Dade,25.475600,-80.470000,665.0,33030
1988,Delaware,42.343542,-91.247100,8108.0,52237
1989,Hot Spring,,,55714.0,72105
1990,Boise,43.904085,-116.244193,54524.0,83629
1991,Terrebonne,29.580600,-90.722500,1439.0,70360
1992,Limestone,31.421900,-96.252500,298.0,75846
1993,Chambers,,,3460.0,77520
1994,Harris,,,3461.0,77502
1995,Harris,29.822201,-95.219429,3464.0,77049
1996,Harris,,,3465.0,77045
1997,Galveston,29.486667,-94.979444,3466.0,77518
1998,Harris,,,3468.0,77536
1999,Harris,29.941700,-95.530600,3469.0,77064
2000,Fort Bend,29.482800,-95.631100,3470.0,77481
2001,Harris,29.525833,-95.108055,3471.0,77598
2002,Matagorda,,,6251.0,77194
2003,Harris,29.694838,-95.040622,7325.0,77571
2004,Hunterdon,40.627823,-74.935979,54707.0,8809
2005,Park,44.980600,-108.842800,52127.0,82435
2006,Middlesex,,,9038.0,1749
2007,Stevens,37.175000,-101.345800,1289.0,67951
2008,Stevens,37.175000,-101.345800,7011.0,67951
2009,Grafton,,,10137.0,5001
2010,Lafayette,,,1443.0,70669
2011,Lafayette,,,1445.0,70669
2012,Suffolk,40.881400,-73.290600,50656.0,11731
2013,Wayne,42.357800,-83.057800,10232.0,48201
2014,McLeod,44.895741,-94.368433,1980.0,55350
2015,McLeod,44.888881,-94.349348,6358.0,55350
2016,Liberty,,,55407.0,77538
2017,Stevens,48.595300,-118.060300,3868.0,99141
2018,Riverside County,33.738839,-117.170369,55853.0,92585
2019,Dubuque,42.503100,-90.658611,1046.0,52001
2020,Allamakee,43.335900,-91.167500,1047.0,52151
2021,Clinton,41.808100,-90.233611,1048.0,52732
2022,Story,42.013319,-93.575416,1052.0,50010
2023,Linn,,,1058.0,52401
2024,Linn,42.101100,-91.778100,1060.0,52324
2025,Jackson,42.069987,-90.697657,1067.0,52060
2026,Marshall,42.048000,-92.863000,1068.0,50158
2027,Linn,,,1073.0,52401
2028,Marshall,42.047333,-92.859444,1077.0,50158
2029,Des Moines,40.741200,-91.116667,1104.0,52601
2030,Appanoose,40.747800,-92.873056,1105.0,52544
2031,Martin,43.672800,-94.707500,1888.0,56171
2032,Rock,43.528874,-96.364722,1889.0,56138
2033,Wapello,41.096100,-92.555833,6254.0,52501
2034,Poweshiek,41.752900,-92.748889,7137.0,50112
2035,Cerro Gordo,43.248100,-93.205000,7155.0,50401
2036,Linn,,,7595.0,52401
2037,nan,,,7706.0,52601
2038,Le Sueur,44.442100,-93.565000,8025.0,56069
2039,Cerro Gordo,,,8031.0,50401
2040,Aleutian Islands,,,54883.0,99692
2041,Bonneville,43.420221,-112.101852,790.0,83402
2042,Bonneville,43.491398,-112.045410,841.0,83402
2043,Bonneville,43.468398,-112.062602,843.0,83402
2044,Bonneville,43.552695,-112.050953,844.0,83402
2045,Bonneville,43.468679,-112.062499,7012.0,83402
2046,Lake & Peninsula Bor,59.899054,-154.698735,7183.0,99606
2047,Rapides,,,54095.0,71361
2048,Power,42.777800,-112.876400,809.0,83211
2049,Gooding,42.913786,-115.070986,810.0,83314
2050,Washington,,,811.0,97840
2051,Owyhee,42.944869,-115.977858,812.0,83604
2052,Valley,44.525600,-116.048300,813.0,83611
2053,Gooding,42.667010,-114.780120,814.0,83316
2054,Gooding,42.865783,-114.906172,815.0,83332
2055,Gooding,42.841608,-114.903611,816.0,83332
2056,Lemhi,45.183368,-113.885307,817.0,83467
2057,Jerome,42.597500,-114.403300,818.0,83301
2058,Ada,43.243500,-116.379100,819.0,83634
2059,Gooding,42.740542,-114.836722,820.0,83355
2060,Twin Falls,42.589200,-114.355300,821.0,83341
2061,Twin Falls,42.767422,-114.924692,822.0,83332
2062,Gooding,42.864267,-114.885542,823.0,83332
2063,Wallowa,45.243900,-116.700800,3013.0,97840
2064,Baker,44.971643,-116.835042,3014.0,97840
2065,Twin Falls,42.766397,-114.908236,7079.0,83332
2066,Cassia,42.526786,-114.036889,7190.0,83344
2067,Elmore,43.179176,-115.734315,7953.0,83647
2068,Norfolk,,,55427.0,2019
2069,Madison,38.831100,-90.011900,55759.0,62084
2070,LaSalle,,,55760.0,61634
2071,Cook,41.645000,-87.601100,55761.0,60419
2072,Vermillion,,,55762.0,61832
2073,Lee,41.738300,-89.382800,55763.0,61021
2074,Rock Island,41.536700,-90.376100,55764.0,61244
2075,Will County,,,55767.0,60441
2076,Cook,41.674200,-87.578600,55768.0,60633
2077,Lake,42.321111,-88.031944,55773.0,60030
2078,Grundy,41.303100,-88.402800,55774.0,60450
2079,McLean,40.458100,-88.456400,7556.0,61791
2080,Columbus,34.353300,-78.213700,54656.0,28456
2081,Imperial,32.673097,-115.392026,314.0,92231
2082,Imperial,32.968889,-115.534444,383.0,92227
2083,Imperial,32.705435,-115.030975,385.0,92250
2084,Imperial,32.705428,-115.126103,386.0,92250
2085,Imperial,32.705341,-115.219067,387.0,92250
2086,Imperial,32.736642,-114.713858,388.0,92283
2087,Imperial,32.802200,-115.540000,389.0,92243
2088,Imperial,32.711611,-114.942666,585.0,92250
2089,Imperial,32.699451,-115.282450,586.0,92231
2090,Riverside,33.675800,-116.171400,6060.0,92236
2091,Yuma,,,7478.0,85364
2092,Imperial,32.955300,-115.536400,7824.0,92227
2093,Winnebago,42.298938,-89.075925,50989.0,61103
2094,Buchanan,42.475300,-91.887222,1149.0,50644
2095,Jackson,39.091900,-94.326100,2132.0,64056
2096,Jackson,,,2134.0,64056
2097,Jackson,39.106700,-94.380400,2135.0,64056
2098,Jackson,,,2136.0,64056
2099,Clay,39.231534,-94.307979,2171.0,64072
2100,Wayne,,,7335.0,47374
2101,Madison,40.052900,-85.738900,7336.0,46011
2102,Niagra,,,50451.0,14150
2103,oswego,,,50450.0,13126
2104,Wyoming,42.654400,-78.077200,50449.0,14550
2105,Middlesex,,,54559.0,2149
2106,Martin,27.038900,-80.512500,50976.0,34956
2107,Herkimer,,,50459.0,13357
2108,Catteraugua,,,54076.0,14760
2109,Saratoga,43.250000,-73.812500,50458.0,12822
2110,Pike,38.520100,-87.266200,1043.0,47567
2111,Sullivan,39.069400,-87.510800,6213.0,47882
2112,Lawrence,,,7948.0,47421
2113,Jefferson,,,983.0,47300
2114,Middlesex,,,10522.0,1463
2115,Cass,,,55460.0,49120
2116,Marion,39.711319,-86.196867,990.0,46217
2117,Morgan,39.485170,-86.418300,991.0,46151
2118,Pike,38.528100,-87.252500,994.0,47567
2119,Marion,39.902556,-86.244050,7759.0,46268
2120,Warren,41.359491,-93.563268,1150.0,50125
2121,Will,,,55823.0,60421
2122,San Bernardino,35.765000,-117.383300,10684.0,93562
2123,San Gernadino,,,10685.0,93562
2124,San Mateo,37.455314,-122.172797,50537.0,94025
2125,Hancock,44.5738,-68.8046,50243.0,4416
2126,Kennebec,,,54085.0,4239
2127,Orange,30.217800,-93.742200,10425.0,77632
2128,Desota,,,54091.0,71052
2129,Elkhart,,,986.0,46500
2130,Dearborn,,,988.0,47000
2131,St Joseph,41.665000,-86.132200,989.0,46500
2132,Berrien,,,1753.0,49100
2133,Berrien,,,1754.0,49100
2134,Berrien,,,6000.0,49100
2135,Spencer,,,6166.0,47600
2136,Benton,34.835000,-89.202600,55451.0,38605
2137,Oklahoma,35.685600,-97.226400,55463.0,73054
2138,Sussex,,,594.0,19966
2139,Indiana,40.614400,-79.159400,10129.0,15705
2140,Val Verde,29.449827,-101.060110,6128.0,78840
2141,Starr,26.557500,-99.164200,6410.0,78545
2142,Isle of Wight,36.680300,-76.912800,52152.0,23851
2143,Essex,43.891437,-73.396998,54099.0,12883
2144,Richmond,33.328259,-81.953078,54358.0,30906
2145,Morehouse,,,54090.0,71221
2146,St Lawrence,44.296544,-75.36645,10116.0,13642
2147,Erie,,,10628.0,16533
2148,Hampden,42.163378,-72.827509,50166.0,1097
2149,Clinton,,,54089.0,17745
2150,Saratoga,,,54088.0,12822
2151,Dickinson,45.795600,-87.955600,50251.0,49870
2152,Polk,,,54013.0,37317
2153,Stearns,,,50252.0,56377
2154,Providence,,,55361.0,2876
2155,Carbon,45.206341,-109.165200,10138.0,59068
2156,Outagamie,44.282600,-88.253400,54098.0,54130
2157,Warren,32.529200,-90.774200,54100.0,39181
2158,Polk,27.765220,-81.938787,10004.0,33860
2159,Polk,27.833642,-82.051937,10434.0,33860
2160,Lawrence,34.735000,-87.310800,50245.0,35618
2161,Cass,33.255300,-94.069600,54097.0,75572
2162,Jefferson,,,10627.0,71611
2163,Georgetown,33.360185,-79.302573,54087.0,29440
2164,Dallas,32.426016,-86.870912,54096.0,36703
2165,Liberty,31.741629,-81.407856,54281.0,31323
2166,Merced,37.047800,-121.170800,10005.0,93635
2167,Franklin,44.503704,-70.220971,50047.0,4239
2168,Franklin,44.503431,-70.249137,50081.0,4239
2169,Andrscoggin,,,50082.0,4239
2170,Escambia,30.596600,-87.326400,50250.0,32533
2171,Halifax,36.476900,-77.641400,50254.0,27870
2172,Polk,,,10655.0,50309
2173,Lake,41.663765,-87.452325,10397.0,46312
2174,Allen,37.923076,-95.425572,1291.0,66749
2175,Calhoun,,,52151.0,29044
2176,Story,42.027500,-93.639400,54201.0,50011
2177,St James,30.038649,-90.828312,10198.0,70792
2178,Kern,35.643900,-118.482200,10139.0,93240
2179,Essex,,,1670.0,1938
2180,Lake,41.683600,-87.423300,10475.0,46312
2181,Broome,42.107192,-75.927782,55600.0,13905
2182,Adams,,,54094.0,39120
2183,Cuyahoga,,,10398.0,44127
2184,Suffolk,40.786900,-73.106400,51038.0,11779
2185,Jackson,,,54093.0,39563
2186,Lake,41.662778,-87.444444,10211.0,46312
2187,Lake,41.680000,-87.426389,10474.0,46312
2188,Will,,,52032.0,60433
2189,Jefferson,33.273835,-82.407813,54880.0,30833
2190,Warren,33.331900,-82.452200,55961.0,30833
2191,Twin Falls,42.629637,-114.661620,10049.0,83316
2192,Jackson,,,55490.0,45692
2193,Jackson,42.294700,-84.384000,10722.0,49201
2194,La Crosse,,,55444.0,45640
2195,Philadelphia,,,54288.0,19127
2196,Jackson,,,7577.0,0
2197,Cape Girardeau,37.384700,-89.660600,2137.0,63755
2198,Duval,30.430800,-81.550800,207.0,32226
2199,Duval,30.364818,-81.625967,666.0,32206
2200,Duval,30.417200,-81.552500,667.0,32226
2201,Duval,30.316389,-81.648888,668.0,32207
2202,Duval,30.335600,-81.463900,7705.0,32225
2203,Duval,30.320600,-81.948600,7846.0,32234
2204,City of Hopewell,,,10377.0,23860
2205,Santa Clara,,,54561.0,95050
2206,Rock Island,,,54904.0,61265
2207,Chautauqua,42.093300,-79.247800,2682.0,14702
2208,Waseca,44.112200,-93.694400,1982.0,56048
2209,Dubois,38.400400,-86.914600,6225.0,47547
2210,Maricopa,,,54838.0,85224
2211,Iberia,,,10736.0,70544
2212,Nassau,30.681823,-81.455413,10202.0,32034
2213,Duval,30.364444,-81.629722,54430.0,32206
2214,Wabash,,,10022.0,46992
2215,Warren,41.0006,-75.0314,6522.0,7825
2216,Ocean,,,7138.0,87310
2217,Hodgeman,38.080332,-99.893587,1292.0,67854
2218,Brevard,,,52003.0,32952
2219,Weld,,,54596.0,80534
2220,Dubuque,42.573400,-90.692600,54414.0,52001
2221,Stanton,37.575700,-101.625000,6579.0,67855
2222,Rock Island,41.524315,-90.436590,10039.0,61244
2223,NOT IN FILE,,,7493.0,99612
2224,Merced,,,52198.0,95388
2225,Sedgwick,40.968100,-102.249200,504.0,80737
2226,Coffey,,,7973.0,66839
2227,Clark,40.422500,-91.720600,2138.0,63445
2228,Honolulu,21.302106,-158.096318,54646.0,96707
2229,Wyandotte,39.086700,-94.651389,1294.0,66105
2230,Wyandotte,39.149200,-94.638100,1295.0,66104
2231,Wyandotte,39.168100,-94.697500,6064.0,66104
2232,Linn,38.348100,-94.645600,1241.0,66040
2233,Jackson,39.105278,-94.569722,2078.0,64106
2234,Jackson,39.130600,-94.477800,2079.0,64120
2235,Henry,38.311400,-93.934800,2080.0,64735
2236,Jackson,39.122800,-94.560600,2081.0,64120
2237,Platte,39.447200,-94.980000,6065.0,64098
2238,Miami,38.532161,-94.902633,7928.0,66071
2239,Johnson,38.787500,-94.986100,7929.0,66021
2240,Cabarrus,,,10626.0,28081
2241,Rowan,,,52178.0,28159
2242,King,47.661111,-122.446389,50329.0,98199
2243,Sedgwick,37.790300,-97.521667,1240.0,67030
2244,Sedgwick,37.596700,-97.413611,1242.0,67215
2245,Labette,37.305556,-95.110278,1243.0,67357
2246,Sedgwick,,,1245.0,67201
2247,Queens,40.759167,-73.946111,2500.0,11101
2248,Honolulu,,,54405.0,96734
2249,San Bernardino,35.006940,-117.555768,10439.0,93516
2250,San Bernardino,35.012166,-117.555672,10440.0,93516
2251,San Bernardino,35.019480,-117.555530,10441.0,93516
2252,San Bernardino,35.020981,-117.566079,10442.0,93516
2253,San Bernardino,35.014836,-117.565903,10443.0,93516
2254,Chatam,,,54999.0,31402
2255,Pipestone,44.011900,-96.112500,55809.0,56164
2256,Iberville,30.321700,-91.234700,55419.0,70765
2257,Outagamie,44.276199,-88.265445,4118.0,54130
2258,Outagamie,,,4119.0,54130
2259,Outagamie,44.277200,-88.267800,4120.0,54130
2260,Outagamie,44.277200,-88.267800,4121.0,54130
2261,Outagamie,44.316400,-88.314700,4122.0,54130
2262,Outagamie,,,4201.0,54130
2263,Outagamie,,,7793.0,54130
2264,Outagamie,44.274582,-88.319074,7822.0,54130
2265,Keya Paha,42.825556,-93.776944,7771.0,68778
2266,Tulare,36.327500,-119.294700,10042.0,93291
2267,Riley,,,54811.0,66506
2268,Tulare,36.415600,-119.006900,54343.0,93244
2269,Weld,40.440600,-104.686300,50709.0,80631
2270,Knott,,,55289.0,41722
2271,Alameda,37.734100,-121.651600,50712.0,94550
2272,Kendall,,,55873.0,60545
2273,Dunklin,36.243100,-90.049500,2139.0,63857
2274,Kent,42.949575,-85.693209,50860.0,49503
2275,Garrard,,,1354.0,40300
2276,Mercer,,,1355.0,40300
2277,Carroll,,,1356.0,41000
2278,Muhlenberg,,,1357.0,42300
2279,Fayette,,,1358.0,40500
2280,Mercer,,,1359.0,40300
2281,Bell,,,1360.0,40900
2282,Woodford,,,1361.0,40400
2283,Clark,,,55266.0,40391
2284,Goodhue,44.268900,-92.971400,1983.0,55946
2285,Kern,35.516470,-119.040128,50494.0,93308
2286,Kern,35.451500,-118.984900,10496.0,93380
2287,Ketchikan Gateway,55.613892,-131.354170,70.0,99901
2288,Ketchikan Gateway,55.344641,-131.633425,84.0,99901
2289,Ketchikan Gateway,55.363300,-131.677800,85.0,99901
2290,Ketchikan Gateway,55.379750,-131.470269,6580.0,99901
2291,Ketchikan Gateway,55.381402,-131.517758,6581.0,99901
2292,Monroe,24.579167,-81.685000,164.0,33041
2293,Monroe,24.579167,-81.685000,6582.0,33041
2294,Monroe,24.563333,-81.734200,6584.0,33041
2295,nan,,,50934.0,33040
2296,Brunswick,,,55696.0,23868
2297,Lackawanna,41.436900,-75.589700,54934.0,18512
2298,Kimball,41.235000,-103.659700,2248.0,69145
2299,Deleware,,,50410.0,19013
2300,Gloucester,,,10045.0,8096
2301,Lake,,,55695.0,60085
2302,Cape Girardeau,,,55448.0,63785
2303,Jackson,42.248800,-84.376700,55270.0,49203
2304,Kendall,,,55277.0,60450
2305,Pittsburg,,,55421.0,74553
2306,Houston,,,55730.0,36319
2307,Jackson,,,55653.0,72112
2308,Tift,,,55674.0,31794
2309,Kingfisher,35.857500,-97.927700,2986.0,73750
2310,Kingman,37.383110,-98.070364,1296.0,67068
2311,Fresno,,,7907.0,93725
2312,Fresno,36.539700,-119.579400,10405.0,93631
2313,Camden,30.791700,-81.533300,54239.0,31547
2314,New Haven,41.3686,-73.0856,54385.0,6483
2315,Queens,40.641700,-73.777800,54114.0,11430
2316,Pittsburg,34.683100,-95.934900,55501.0,74553
2317,Gooding,42.945664,-114.795698,10781.0,83330
2318,Cook,,,10376.0,60164
2319,Osceola,,,672.0,34742
2320,Osceola,28.276400,-81.533000,7238.0,33848
2321,Cook,,,10498.0,60659
2322,Allen,37.943611,-95.152222,10499.0,66755
2323,Pulaski,,,55221.0,72183
2324,Klickitat,45.801549,-120.167176,7832.0,99356
2325,Will,,,5756.0,60436
2326,Bergen,,,50693.0,7495
2327,Kodiak Island,57.686100,-152.895000,71.0,99615
2328,Kodiak Island,57.789683,-152.396750,6281.0,99615
2329,Kodiak Island,57.791100,-152.405800,6282.0,99660
2330,Kodiak Island,,,7723.0,10708
2331,Alger,46.409400,-86.644300,54867.0,49862
2332,Cook,41.821537,-87.750434,10732.0,60804
2333,Northwest Arctic,66.837778,-162.556944,6304.0,99752
2334,Lycomine,,,10731.0,17752
2335,Macon,,,55758.0,62522
2336,Sawyer,,,10453.0,54843
2337,Vernon,43.590300,-90.639400,4124.0,54639
2338,Otero,37.984400,-103.543600,506.0,81050
2339,Macon,40.012200,-92.507500,2140.0,63549
2340,Black Hawk,42.319400,-92.196700,1156.0,50651
2341,Laek,,,54423.0,32784
2342,Rush,38.532200,-98.310300,1297.0,67548
2343,Essex,43.849029,-73.420701,10752.0,12883
2344,Essex,43.843869,-73.431207,10753.0,12883
2345,Windam,,,55149.0,6241
2346,Palm beach,,,55416.0,33461
2347,Blue Earth,44.106888,-94.219697,1985.0,56055
2348,Rutherford,35.425910,-82.184005,2773.0,28746
2349,Winnebago,43.417200,-93.532200,1154.0,50450
2350,Dickinson,43.430100,-95.315300,1153.0,51347
2351,Palm Beach,26.612767,-80.067700,673.0,33460
2352,Jackson,43.680278,-95.172500,7415.0,56150
2353,Polk,28.079700,-81.922800,675.0,33801
2354,Polk,28.080100,-81.922900,676.0,33801
2355,Polk,28.027400,-82.016400,7997.0,33811
2356,Kearny,37.941400,-101.263900,7393.0,67860
2357,Prowers,38.092100,-102.614800,508.0,81052
2358,Decatur,40.622000,-93.932600,1155.0,50140
2359,Davis,40.987200,-111.898300,50942.0,84025
2360,Lancaster,40.071100,-76.643600,50859.0,17502
2361,Fillmore,43.720026,-91.977738,1987.0,55949
2362,Ingham,,,1831.0,48900
2363,Eaton,,,1832.0,48900
2364,Pawnee,38.179700,-99.112500,1298.0,67550
2365,Pawnee,38.179722,-99.112500,1299.0,67550
2366,Herkimer,43.040335,-74.850621,51034.0,13365
2367,Bannock,,,54753.0,83204
2368,Bent,38.064700,-103.215900,507.0,81054
2369,Lamar,,,55097.0,75460
2370,Cattaraugus,,,10403.0,14731
2371,Cedar,42.430539,-97.090814,2249.0,68745
2372,York,,,50914.0,4073
2373,Pocahontas,42.848600,-94.850600,1157.0,50554
2374,Union,,,55469.0,7036
2375,Los Angeles,33.943965,-118.404250,10048.0,90045
2376,Imperial,33.177900,-115.565000,10631.0,92233
2377,Warren,,,2921.0,43000
2378,Lebanon,,,10557.0,17042
2379,Rockland,41.077200,-74.018100,10521.0,10965
2380,Lee,26.631549,-81.760656,52010.0,33905
2381,El Paso,,,55637.0,79912
2382,Erie,,,52200.0,14031
2383,Taylor,40.880000,-94.558900,1158.0,50851
2384,Hamblen,,,10321.0,37778
2385,Lee,,,55663.0,38866
2386,Washington,33.092239,-82.979992,55332.0,31082
2387,Sussex,,,600.0,19958
2388,Riverside,33.922800,-116.542200,54454.0,92258
2389,Lincoln,44.273300,-96.072800,54794.0,56178
2390,Culberson,31.733300,-104.750000,54966.0,79847
2391,Lewis,46.466100,-122.109700,7427.0,98377
2392,Cook,,,50342.0,60615
2393,Androscoggin,,,54202.0,4240
2394,San Patricio,27.889290,-97.258417,55086.0,78359
2395,Allen,,,55635.0,45801
2396,Kauai,,,10073.0,96766
2397,Lincoln,39.037190,-98.152993,1300.0,67455
2398,Lancaster,40.807880,-96.710667,2250.0,68508
2399,Lancaster,40.731600,-96.736400,6373.0,68523
2400,Lancaster,,,7887.0,nan
2401,Lancaster,40.904400,-96.623100,7965.0,68517
2402,Colwitz,,,55634.0,98632
2403,Montgomery,,,55506.0,19464
2404,Garvin,,,2990.0,73052
2405,Harris,29.724750,-95.176479,55047.0,77506
2406,Meeker,45.115000,-94.528100,1989.0,55355
2407,Kern,35.483700,-119.029800,54768.0,93308
2408,Cook,41.720860,-87.692000,10400.0,60805
2409,Pulaski,34.695300,-92.151900,10050.0,72206
2410,Blaine,43.425228,-114.025597,54386.0,83320
2411,Glynn,31.285000,-81.560000,55800.0,31520
2412,Lubbock,,,55577.0,79401
2413,Chatham,35.618400,-79.091200,10051.0,27559
2414,Union,34.779200,-81.456100,3275.0,29364
2415,Niagra,,,54041.0,14094
2416,Cook,,,10399.0,60617
2417,Gloucester,39.7928,-75.406667,10043.0,8085
2418,Cache,41.725833,-111.843300,4251.0,84321
2419,Cache,41.743728,-111.783169,7034.0,84321
2420,Morris,,,54971.0,75668
2421,Cass,40.758858,-86.360289,1032.0,46947
2422,El Paso,31.902200,-106.580600,55536.0,79912
2423,San Bernardino,34.050391,-117.248417,10206.0,92350
2424,Niagara,,,55531.0,14094
2425,Cowlitz,46.103887,-122.918429,54562.0,98632
2426,Pike,,,55329.0,39629
2427,Rio Arriba,36.592775,-106.732130,7593.0,87575
2428,Rio Arriba,36.239886,-106.423043,7789.0,87510
2429,Inyo,37.142795,-118.324075,391.0,93513
2430,Los Angeles,34.587237,-118.656638,392.0,91384
2431,Inyo,37.437921,-118.556988,393.0,93514
2432,Inyo,36.443421,-118.043890,394.0,93545
2433,Los Angeles,34.318248,-118.494449,396.0,91342
2434,Los Angeles,34.103931,-118.413377,397.0,90210
